[{"id": "KutHWQT6Ha5ZRplvZ5mLXg", "alias": "toyama-sushi-san-francisco-2", "name": "Toyama Sushi", "image_url": "https://s3-media1.fl.yelpcdn.com/bphoto/mD6OR_AvokGOIi9qVChoBA/o.jpg", "is_closed": false, "url": "https://www.yelp.com/biz/toyama-sushi-san-francisco-2?adjust_creative=YxudJyndSed2kqfC9K7Xig&utm_campaign=yelp_api_v3&utm_medium=api_v3_business_search&utm_source=YxudJyndSed2kqfC9K7Xig", "review_count": 432, "categories": [{"alias": "japanese", "title": "Japanese"}, {"alias": "sushi", "title": "Sushi Bars"}], "rating": 4.5, "coordinates": {"latitude": 37.780943, "longitude": -122.459450103343}, "transactions": ["pickup", "delivery"], "price": "$$", "location": {"address1": "3727 Geary Blvd", "address2": "", "address3": null, "city": "San Francisco", "zip_code": "94118", "country": "US", "state": "CA", "display_address": ["3727 Geary Blvd", "San Francisco, CA 94118"]}, "phone": "+14152219811", "display_phone": "(415) 221-9811", "distance": 3009.190784912084}, {"id": "cL0q9S4bqwpbAN9ZKh-Zeg", "alias": "nara-restaurant-and-sake-bar-san-francisco", "name": "Nara Restaurant & Sake Bar", "image_url": "https://s3-media1.fl.yelpcdn.com/bphoto/7zzlpJKaC9bndjuo2UIr6g/o.jpg", "is_closed": false, "url": "https://www.yelp.com/biz/nara-restaurant-and-sake-bar-san-francisco?adjust_creative=YxudJyndSed2kqfC9K7Xig&utm_campaign=yelp_api_v3&utm_medium=api_v3_business_search&utm_source=YxudJyndSed2kqfC9K7Xig", "review_count": 1942, "categories": [{"alias": "japanese", "title": "Japanese"}, {"alias": "sushi", "title": "Sushi Bars"}], "rating": 4.5, "coordinates": {"latitude": 37.7721665317965, "longitude": -122.430675700307}, "transactions": ["restaurant_reservation", "pickup", "delivery"], "price": "$$", "location": {"address1": "518 Haight St", "address2": "", "address3": "", "city": "San Francisco", "zip_code": "94117", "country": "US", "state": "CA", "display_address": ["518 Haight St", "San Francisco, CA 94117"]}, "phone": "+14156386124", "display_phone": "(415) 638-6124", "distance": 1351.6641305802066}, {"id": "ZGAjGYDFBJV1Z0JO2fanKA", "alias": "rocket-sushi-san-francisco-2", "name": "Rocket Sushi", "image_url": "https://s3-media3.fl.yelpcdn.com/bphoto/rpDSk5oEbhGzV7kt7roGOg/o.jpg", "is_closed": false, "url": "https://www.yelp.com/biz/rocket-sushi-san-francisco-2?adjust_creative=YxudJyndSed2kqfC9K7Xig&utm_campaign=yelp_api_v3&utm_medium=api_v3_business_search&utm_source=YxudJyndSed2kqfC9K7Xig", "review_count": 231, "categories": [{"alias": "sushi", "title": "Sushi Bars"}, {"alias": "ramen", "title": "Ramen"}, {"alias": "conveyorsushi", "title": "Conveyor Belt Sushi"}], "rating": 4.5, "coordinates": {"latitude": 37.77255, "longitude": -122.42193}, "transactions": ["pickup", "delivery"], "price": "$$", "location": {"address1": "1695 Market St", "address2": null, "address3": "", "city": "San Francisco", "zip_code": "94103", "country": "US", "state": "CA", "display_address": ["1695 Market St", "San Francisco, CA 94103"]}, "phone": "+14158729368", "display_phone": "(415) 872-9368", "distance": 1816.80961214567}, {"id": "D1K_lFglA5fOYquqltYcdg", "alias": "ebisu-san-francisco", "name": "Ebisu", "image_url": "https://s3-media1.fl.yelpcdn.com/bphoto/0wxdWfm9M4ULROKfQiC7sA/o.jpg", "is_closed": false, "url": "https://www.yelp.com/biz/ebisu-san-francisco?adjust_creative=YxudJyndSed2kqfC9K7Xig&utm_campaign=yelp_api_v3&utm_medium=api_v3_business_search&utm_source=YxudJyndSed2kqfC9K7Xig", "review_count": 2002, "categories": [{"alias": "sushi", "title": "Sushi Bars"}, {"alias": "japanese", "title": "Japanese"}], "rating": 4.0, "coordinates": {"latitude": 37.7644547169329, "longitude": -122.466417011814}, "transactions": ["delivery"], "price": "$$", "location": {"address1": "1283 9th Ave", "address2": "", "address3": "", "city": "San Francisco", "zip_code": "94122", "country": "US", "state": "CA", "display_address": ["1283 9th Ave", "San Francisco, CA 94122"]}, "phone": "+14155661770", "display_phone": "(415) 566-1770", "distance": 2664.01311750992}, {"id": "6TL8udi-vy_5rH-wikMSoA", "alias": "saru-sushi-bar-san-francisco-7", "name": "Saru Sushi Bar", "image_url": "https://s3-media1.fl.yelpcdn.com/bphoto/5-ugy01zjSvudVsfdhmCsA/o.jpg", "is_closed": false, "url": "https://www.yelp.com/biz/saru-sushi-bar-san-francisco-7?adjust_creative=YxudJyndSed2kqfC9K7Xig&utm_campaign=yelp_api_v3&utm_medium=api_v3_business_search&utm_source=YxudJyndSed2kqfC9K7Xig", "review_count": 970, "categories": [{"alias": "sushi", "title": "Sushi Bars"}, {"alias": "japanese", "title": "Japanese"}, {"alias": "seafood", "title": "Seafood"}], "rating": 4.5, "coordinates": {"latitude": 37.751706, "longitude": -122.4288283}, "transactions": ["delivery"], "price": "$$$", "location": {"address1": "3856 24th St", "address2": "", "address3": "", "city": "San Francisco", "zip_code": "94114", "country": "US", "state": "CA", "display_address": ["3856 24th St", "San Francisco, CA 94114"]}, "phone": "+14154004510", "display_phone": "(415) 400-4510", "distance": 1222.1441911467125}, {"id": "kUxtjTa2vCSWQvr00YwxQw", "alias": "kazan-san-francisco", "name": "Kazan", "image_url": "https://s3-media3.fl.yelpcdn.com/bphoto/YFjJ96YGoB-U2j0GFpZ7UQ/o.jpg", "is_closed": false, "url": "https://www.yelp.com/biz/kazan-san-francisco?adjust_creative=YxudJyndSed2kqfC9K7Xig&utm_campaign=yelp_api_v3&utm_medium=api_v3_business_search&utm_source=YxudJyndSed2kqfC9K7Xig", "review_count": 582, "categories": [{"alias": "japanese", "title": "Japanese"}, {"alias": "sushi", "title": "Sushi Bars"}, {"alias": "soup", "title": "Soup"}], "rating": 4.5, "coordinates": {"latitude": 37.752694, "longitude": -122.408469}, "transactions": ["delivery"], "price": "$$", "location": {"address1": "2809 24th St", "address2": "", "address3": "", "city": "San Francisco", "zip_code": "94110", "country": "US", "state": "CA", "display_address": ["2809 24th St", "San Francisco, CA 94110"]}, "phone": "+14152822001", "display_phone": "(415) 282-2001", "distance": 2622.6059855964513}, {"id": "9t3DWuROXOrvioDxG9R59A", "alias": "sushi-goemon-san-francisco", "name": "Sushi Goemon", "image_url": "https://s3-media4.fl.yelpcdn.com/bphoto/f0sve9czJjrZc4LukHsziA/o.jpg", "is_closed": false, "url": "https://www.yelp.com/biz/sushi-goemon-san-francisco?adjust_creative=YxudJyndSed2kqfC9K7Xig&utm_campaign=yelp_api_v3&utm_medium=api_v3_business_search&utm_source=YxudJyndSed2kqfC9K7Xig", "review_count": 348, "categories": [{"alias": "japanese", "title": "Japanese"}, {"alias": "sushi", "title": "Sushi Bars"}], "rating": 4.5, "coordinates": {"latitude": 37.76393, "longitude": -122.47438}, "transactions": ["pickup", "delivery"], "price": "$$", "location": {"address1": "1524 Irving St", "address2": "", "address3": null, "city": "San Francisco", "zip_code": "94122", "country": "US", "state": "CA", "display_address": ["1524 Irving St", "San Francisco, CA 94122"]}, "phone": "+14157425137", "display_phone": "(415) 742-5137", "distance": 3354.660795211291}, {"id": "r2jiJk3yivcLkWSSYELGcA", "alias": "tataki-san-francisco", "name": "Tataki", "image_url": "https://s3-media1.fl.yelpcdn.com/bphoto/jz1YmSB_DGqAWoRlXxqaow/o.jpg", "is_closed": false, "url": "https://www.yelp.com/biz/tataki-san-francisco?adjust_creative=YxudJyndSed2kqfC9K7Xig&utm_campaign=yelp_api_v3&utm_medium=api_v3_business_search&utm_source=YxudJyndSed2kqfC9K7Xig", "review_count": 1411, "categories": [{"alias": "sushi", "title": "Sushi Bars"}, {"alias": "bars", "title": "Bars"}], "rating": 4.0, "coordinates": {"latitude": 37.7878390504557, "longitude": -122.441227674274}, "transactions": ["restaurant_reservation", "delivery"], "price": "$$", "location": {"address1": "2827 California St", "address2": "", "address3": "", "city": "San Francisco", "zip_code": "94115", "country": "US", "state": "CA", "display_address": ["2827 California St", "San Francisco, CA 94115"]}, "phone": "+14159311182", "display_phone": "(415) 931-1182", "distance": 3024.874051233535}, {"id": "xu5JJfwR_RmSiHljGJ3gsw", "alias": "oishinbo-sushi-san-francisco", "name": "Oishinbo Sushi", "image_url": "https://s3-media2.fl.yelpcdn.com/bphoto/ZjfqvtyVqDlZs5vrqoA3RA/o.jpg", "is_closed": false, "url": "https://www.yelp.com/biz/oishinbo-sushi-san-francisco?adjust_creative=YxudJyndSed2kqfC9K7Xig&utm_campaign=yelp_api_v3&utm_medium=api_v3_business_search&utm_source=YxudJyndSed2kqfC9K7Xig", "review_count": 27, "categories": [{"alias": "sushi", "title": "Sushi Bars"}], "rating": 4.5, "coordinates": {"latitude": 37.783245, "longitude": -122.461444}, "transactions": [], "location": {"address1": "202 Clement St", "address2": "", "address3": null, "city": "San Francisco", "zip_code": "94118", "country": "US", "state": "CA", "display_address": ["202 Clement St", "San Francisco, CA 94118"]}, "phone": "+16284320764", "display_phone": "(628) 432-0764", "distance": 3317.0602222401817}, {"id": "mydKjdG8gJOcRQ9cZwkQpQ", "alias": "ryokos-san-francisco", "name": "Ryoko's", "image_url": "https://s3-media3.fl.yelpcdn.com/bphoto/w3i_dVIjGTyIeiYXUzumkA/o.jpg", "is_closed": false, "url": "https://www.yelp.com/biz/ryokos-san-francisco?adjust_creative=YxudJyndSed2kqfC9K7Xig&utm_campaign=yelp_api_v3&utm_medium=api_v3_business_search&utm_source=YxudJyndSed2kqfC9K7Xig", "review_count": 3330, "categories": [{"alias": "sushi", "title": "Sushi Bars"}, {"alias": "japanese", "title": "Japanese"}, {"alias": "bars", "title": "Bars"}], "rating": 4.0, "coordinates": {"latitude": 37.7881987776243, "longitude": -122.412059158087}, "transactions": ["delivery"], "price": "$$", "location": {"address1": "619 Taylor St", "address2": "", "address3": "", "city": "San Francisco", "zip_code": "94102", "country": "US", "state": "CA", "display_address": ["619 Taylor St", "San Francisco, CA 94102"]}, "phone": "+14157751028", "display_phone": "(415) 775-1028", "distance": 3716.0638867510324}, {"id": "yVN5m2ARIT3kcLCG8EVglQ", "alias": "ginza-sushi-and-sake-san-francisco", "name": "Ginza Sushi & Sake", "image_url": "https://s3-media4.fl.yelpcdn.com/bphoto/9CaTtbOp93IVUSSEca6C5Q/o.jpg", "is_closed": false, "url": "https://www.yelp.com/biz/ginza-sushi-and-sake-san-francisco?adjust_creative=YxudJyndSed2kqfC9K7Xig&utm_campaign=yelp_api_v3&utm_medium=api_v3_business_search&utm_source=YxudJyndSed2kqfC9K7Xig", "review_count": 587, "categories": [{"alias": "sushi", "title": "Sushi Bars"}, {"alias": "japanese", "title": "Japanese"}, {"alias": "salad", "title": "Salad"}], "rating": 4.0, "coordinates": {"latitude": 37.7691841125488, "longitude": -122.451538085938}, "transactions": ["pickup", "delivery"], "price": "$$", "location": {"address1": "1793 Haight St", "address2": "", "address3": "", "city": "San Francisco", "zip_code": "94117", "country": "US", "state": "CA", "display_address": ["1793 Haight St", "San Francisco, CA 94117"]}, "phone": "+14157420552", "display_phone": "(415) 742-0552", "distance": 1621.5750436768114}, {"id": "kzukMg-xA1oZwhuI446YSg", "alias": "zenpo-sushi-san-francisco", "name": "Zenpo Sushi", "image_url": "https://s3-media2.fl.yelpcdn.com/bphoto/yVsnVtfAG_i5D4mcf5Y7VA/o.jpg", "is_closed": false, "url": "https://www.yelp.com/biz/zenpo-sushi-san-francisco?adjust_creative=YxudJyndSed2kqfC9K7Xig&utm_campaign=yelp_api_v3&utm_medium=api_v3_business_search&utm_source=YxudJyndSed2kqfC9K7Xig", "review_count": 16, "categories": [{"alias": "sushi", "title": "Sushi Bars"}, {"alias": "japanese", "title": "Japanese"}, {"alias": "tapasmallplates", "title": "Tapas/Small Plates"}], "rating": 5.0, "coordinates": {"latitude": 37.77804, "longitude": -122.42226}, "transactions": [], "location": {"address1": "340 Grove St", "address2": null, "address3": "", "city": "San Francisco", "zip_code": "94102", "country": "US", "state": "CA", "display_address": ["340 Grove St", "San Francisco, CA 94102"]}, "phone": "+14159705315", "display_phone": "(415) 970-5315", "distance": 2289.6764183505816}, {"id": "EdycBcHUsOKcdkrZ1u17rQ", "alias": "little-sushi-bar-san-francisco", "name": "Little Sushi Bar", "image_url": "https://s3-media1.fl.yelpcdn.com/bphoto/0LBX7DpP_cxzuSMOoD058g/o.jpg", "is_closed": false, "url": "https://www.yelp.com/biz/little-sushi-bar-san-francisco?adjust_creative=YxudJyndSed2kqfC9K7Xig&utm_campaign=yelp_api_v3&utm_medium=api_v3_business_search&utm_source=YxudJyndSed2kqfC9K7Xig", "review_count": 155, "categories": [{"alias": "sushi", "title": "Sushi Bars"}], "rating": 4.5, "coordinates": {"latitude": 37.783851, "longitude": -122.482575}, "transactions": ["pickup", "delivery"], "price": "$$", "location": {"address1": "200 23rd Ave", "address2": null, "address3": "", "city": "San Francisco", "zip_code": "94121", "country": "US", "state": "CA", "display_address": ["200 23rd Ave", "San Francisco, CA 94121"]}, "phone": "+14156824418", "display_phone": "(415) 682-4418", "distance": 4795.1344647099695}, {"id": "NitOxGrSIdmYEPfuUS1FEg", "alias": "shoshin-sushi-san-francisco-2", "name": "Shoshin Sushi", "image_url": "https://s3-media2.fl.yelpcdn.com/bphoto/Hux7cef_2MJ7dK1dGmBTOA/o.jpg", "is_closed": false, "url": "https://www.yelp.com/biz/shoshin-sushi-san-francisco-2?adjust_creative=YxudJyndSed2kqfC9K7Xig&utm_campaign=yelp_api_v3&utm_medium=api_v3_business_search&utm_source=YxudJyndSed2kqfC9K7Xig", "review_count": 38, "categories": [{"alias": "japanese", "title": "Japanese"}, {"alias": "sushi", "title": "Sushi Bars"}], "rating": 5.0, "coordinates": {"latitude": 37.78222, "longitude": -122.48574}, "transactions": ["restaurant_reservation", "pickup", "delivery"], "location": {"address1": "2450 Clement St", "address2": null, "address3": "", "city": "San Francisco", "zip_code": "94121", "country": "US", "state": "CA", "display_address": ["2450 Clement St", "San Francisco, CA 94121"]}, "phone": "+14153868008", "display_phone": "(415) 386-8008", "distance": 4941.935887299632}, {"id": "zj09K037XrZ_51Yh5qsIAw", "alias": "kui-shin-bo-san-francisco-2", "name": "Kui Shin Bo", "image_url": "https://s3-media3.fl.yelpcdn.com/bphoto/Tk90nxYDH5tW0c2G0Tq88A/o.jpg", "is_closed": false, "url": "https://www.yelp.com/biz/kui-shin-bo-san-francisco-2?adjust_creative=YxudJyndSed2kqfC9K7Xig&utm_campaign=yelp_api_v3&utm_medium=api_v3_business_search&utm_source=YxudJyndSed2kqfC9K7Xig", "review_count": 932, "categories": [{"alias": "japanese", "title": "Japanese"}, {"alias": "sushi", "title": "Sushi Bars"}], "rating": 4.0, "coordinates": {"latitude": 37.785367, "longitude": -122.429465}, "transactions": ["pickup", "delivery"], "price": "$$", "location": {"address1": "22 Peace Plz", "address2": "Fl 2", "address3": null, "city": "San Francisco", "zip_code": "94115", "country": "US", "state": "CA", "display_address": ["22 Peace Plz", "Fl 2", "San Francisco, CA 94115"]}, "phone": "+14159229575", "display_phone": "(415) 922-9575", "distance": 2789.0243769571885}, {"id": "PnehZ8Y2Bec33xO8DCv4wA", "alias": "hikari-sushi-and-bar-san-francisco-3", "name": "Hikari Sushi & Bar", "image_url": "https://s3-media2.fl.yelpcdn.com/bphoto/Wm-GistOe4KqbEjdLBFk2A/o.jpg", "is_closed": false, "url": "https://www.yelp.com/biz/hikari-sushi-and-bar-san-francisco-3?adjust_creative=YxudJyndSed2kqfC9K7Xig&utm_campaign=yelp_api_v3&utm_medium=api_v3_business_search&utm_source=YxudJyndSed2kqfC9K7Xig", "review_count": 354, "categories": [{"alias": "sushi", "title": "Sushi Bars"}, {"alias": "conveyorsushi", "title": "Conveyor Belt Sushi"}], "rating": 4.0, "coordinates": {"latitude": 37.78577, "longitude": -122.4304}, "transactions": ["pickup", "delivery"], "price": "$$", "location": {"address1": "1734 Post St", "address2": "", "address3": null, "city": "San Francisco", "zip_code": "94115", "country": "US", "state": "CA", "display_address": ["1734 Post St", "San Francisco, CA 94115"]}, "phone": "+14158729116", "display_phone": "(415) 872-9116", "distance": 2821.4939649207536}, {"id": "l69Z6OMNKxrwA69IubLS5g", "alias": "okaeri-japanese-bistro-san-francisco-3", "name": "Okaeri Japanese Bistro", "image_url": "https://s3-media3.fl.yelpcdn.com/bphoto/ma2NK0wxbi6czTWiVbOKdg/o.jpg", "is_closed": false, "url": "https://www.yelp.com/biz/okaeri-japanese-bistro-san-francisco-3?adjust_creative=YxudJyndSed2kqfC9K7Xig&utm_campaign=yelp_api_v3&utm_medium=api_v3_business_search&utm_source=YxudJyndSed2kqfC9K7Xig", "review_count": 174, "categories": [{"alias": "sushi", "title": "Sushi Bars"}, {"alias": "japanese", "title": "Japanese"}], "rating": 4.5, "coordinates": {"latitude": 37.75839, "longitude": -122.41955}, "transactions": [], "price": "$$", "location": {"address1": "3515 20th St", "address2": null, "address3": "", "city": "San Francisco", "zip_code": "94110", "country": "US", "state": "CA", "display_address": ["3515 20th St", "San Francisco, CA 94110"]}, "phone": "+14156559588", "display_phone": "(415) 655-9588", "distance": 1507.4348531459127}, {"id": "WpcWACqlAodx5dbe5GJWZA", "alias": "omakase-san-francisco", "name": "Omakase", "image_url": "https://s3-media2.fl.yelpcdn.com/bphoto/eVZfqAOj723Hw4KZmQPNZQ/o.jpg", "is_closed": false, "url": "https://www.yelp.com/biz/omakase-san-francisco?adjust_creative=YxudJyndSed2kqfC9K7Xig&utm_campaign=yelp_api_v3&utm_medium=api_v3_business_search&utm_source=YxudJyndSed2kqfC9K7Xig", "review_count": 629, "categories": [{"alias": "sushi", "title": "Sushi Bars"}, {"alias": "japanese", "title": "Japanese"}], "rating": 4.5, "coordinates": {"latitude": 37.7706719094861, "longitude": -122.402888577285}, "transactions": [], "price": "$$$$", "location": {"address1": "665 Townsend St", "address2": "", "address3": "", "city": "San Francisco", "zip_code": "94103", "country": "US", "state": "CA", "display_address": ["665 Townsend St", "San Francisco, CA 94103"]}, "phone": "+14158650633", "display_phone": "(415) 865-0633", "distance": 3143.6415932479918}, {"id": "gcwl3UwaL_ogpYlgg8qdzQ", "alias": "amami-sushi-bistro-san-francisco-7", "name": "Amami Sushi Bistro", "image_url": "https://s3-media1.fl.yelpcdn.com/bphoto/ivpTlFxg2pFeDjrnpeuttg/o.jpg", "is_closed": false, "url": "https://www.yelp.com/biz/amami-sushi-bistro-san-francisco-7?adjust_creative=YxudJyndSed2kqfC9K7Xig&utm_campaign=yelp_api_v3&utm_medium=api_v3_business_search&utm_source=YxudJyndSed2kqfC9K7Xig", "review_count": 275, "categories": [{"alias": "sushi", "title": "Sushi Bars"}], "rating": 4.5, "coordinates": {"latitude": 37.72715, "longitude": -122.43271}, "transactions": ["pickup", "delivery"], "location": {"address1": "4435 Mission St", "address2": null, "address3": "", "city": "San Francisco", "zip_code": "94112", "country": "US", "state": "CA", "display_address": ["4435 Mission St", "San Francisco, CA 94112"]}, "phone": "+14153339288", "display_phone": "(415) 333-9288", "distance": 3769.5409263165275}, {"id": "IRD_9JUjR-06zztisuTdAA", "alias": "akikos-restaurant-san-francisco-3", "name": "Akiko's Restaurant", "image_url": "https://s3-media2.fl.yelpcdn.com/bphoto/fuH2ZeMzBxNEcipEmUSZ-Q/o.jpg", "is_closed": false, "url": "https://www.yelp.com/biz/akikos-restaurant-san-francisco-3?adjust_creative=YxudJyndSed2kqfC9K7Xig&utm_campaign=yelp_api_v3&utm_medium=api_v3_business_search&utm_source=YxudJyndSed2kqfC9K7Xig", "review_count": 1995, "categories": [{"alias": "sushi", "title": "Sushi Bars"}, {"alias": "japanese", "title": "Japanese"}], "rating": 4.0, "coordinates": {"latitude": 37.78781, "longitude": -122.39409}, "transactions": ["delivery"], "price": "$$$$", "location": {"address1": "430 Folsom St", "address2": "", "address3": "", "city": "San Francisco", "zip_code": "94105", "country": "US", "state": "CA", "display_address": ["430 Folsom St", "San Francisco, CA 94105"]}, "phone": "+14153973218", "display_phone": "(415) 397-3218", "distance": 4769.927486252011}, {"id": "sJrlDmxVymCJ6AMS1GzBrg", "alias": "ken-san-francisco", "name": "Ken", "image_url": "https://s3-media2.fl.yelpcdn.com/bphoto/U4Ufii6nL-Cc9tCgBnO6IQ/o.jpg", "is_closed": false, "url": "https://www.yelp.com/biz/ken-san-francisco?adjust_creative=YxudJyndSed2kqfC9K7Xig&utm_campaign=yelp_api_v3&utm_medium=api_v3_business_search&utm_source=YxudJyndSed2kqfC9K7Xig", "review_count": 76, "categories": [{"alias": "japanese", "title": "Japanese"}, {"alias": "sushi", "title": "Sushi Bars"}], "rating": 5.0, "coordinates": {"latitude": 37.771418, "longitude": -122.436954}, "transactions": [], "price": "$$$$", "location": {"address1": "252 Divisadero St", "address2": "", "address3": null, "city": "San Francisco", "zip_code": "94117", "country": "US", "state": "CA", "display_address": ["252 Divisadero St", "San Francisco, CA 94117"]}, "phone": "+16288677113", "display_phone": "(628) 867-7113", "distance": 1173.0055775301512}, {"id": "bm7sU0_SNY0k2ZX65YqTsA", "alias": "wasabi-bistro-san-francisco", "name": "Wasabi Bistro", "image_url": "https://s3-media1.fl.yelpcdn.com/bphoto/96Q23QwGd_UNOw8DS1lAvw/o.jpg", "is_closed": false, "url": "https://www.yelp.com/biz/wasabi-bistro-san-francisco?adjust_creative=YxudJyndSed2kqfC9K7Xig&utm_campaign=yelp_api_v3&utm_medium=api_v3_business_search&utm_source=YxudJyndSed2kqfC9K7Xig", "review_count": 596, "categories": [{"alias": "sushi", "title": "Sushi Bars"}, {"alias": "japanese", "title": "Japanese"}], "rating": 4.0, "coordinates": {"latitude": 37.7604103, "longitude": -122.4351501}, "transactions": ["pickup", "delivery"], "price": "$$", "location": {"address1": "524 Castro St", "address2": "", "address3": "", "city": "San Francisco", "zip_code": "94114", "country": "US", "state": "CA", "display_address": ["524 Castro St", "San Francisco, CA 94114"]}, "phone": "+14157010082", "display_phone": "(415) 701-0082", "distance": 122.83689463327856}, {"id": "WtA7XYzBFhZ5LPbSihEWkw", "alias": "akira-japanese-restaurant-san-francisco", "name": "Akira Japanese Restaurant", "image_url": "https://s3-media1.fl.yelpcdn.com/bphoto/uKjXNd3IHMXkUHM-2JIhFA/o.jpg", "is_closed": false, "url": "https://www.yelp.com/biz/akira-japanese-restaurant-san-francisco?adjust_creative=YxudJyndSed2kqfC9K7Xig&utm_campaign=yelp_api_v3&utm_medium=api_v3_business_search&utm_source=YxudJyndSed2kqfC9K7Xig", "review_count": 488, "categories": [{"alias": "japanese", "title": "Japanese"}, {"alias": "sushi", "title": "Sushi Bars"}], "rating": 4.0, "coordinates": {"latitude": 37.78846, "longitude": -122.42421}, "transactions": ["pickup", "delivery"], "price": "$$", "location": {"address1": "1634 Bush St", "address2": "", "address3": null, "city": "San Francisco", "zip_code": "94109", "country": "US", "state": "CA", "display_address": ["1634 Bush St", "San Francisco, CA 94109"]}, "phone": "+14158008498", "display_phone": "(415) 800-8498", "distance": 3240.441916550173}, {"id": "-zetzVfO4X0dpiiTmjdeKg", "alias": "eiji-san-francisco", "name": "Eiji", "image_url": "https://s3-media3.fl.yelpcdn.com/bphoto/fOn03F8dn4J2X4q_LClr5w/o.jpg", "is_closed": false, "url": "https://www.yelp.com/biz/eiji-san-francisco?adjust_creative=YxudJyndSed2kqfC9K7Xig&utm_campaign=yelp_api_v3&utm_medium=api_v3_business_search&utm_source=YxudJyndSed2kqfC9K7Xig", "review_count": 1139, "categories": [{"alias": "sushi", "title": "Sushi Bars"}, {"alias": "japanese", "title": "Japanese"}], "rating": 4.0, "coordinates": {"latitude": 37.764058, "longitude": -122.430685}, "transactions": ["delivery"], "price": "$$", "location": {"address1": "317 Sanchez St", "address2": null, "address3": "", "city": "San Francisco", "zip_code": "94114", "country": "US", "state": "CA", "display_address": ["317 Sanchez St", "San Francisco, CA 94114"]}, "phone": "+14155588149", "display_phone": "(415) 558-8149", "distance": 616.380008566382}, {"id": "dh6rV3m1r0HVPZr2Tn-Q7A", "alias": "niji-sushi-and-bar-san-francisco", "name": "Niji Sushi & Bar", "image_url": "https://s3-media2.fl.yelpcdn.com/bphoto/lA5OlGEobVpjQ1g8yldR_w/o.jpg", "is_closed": false, "url": "https://www.yelp.com/biz/niji-sushi-and-bar-san-francisco?adjust_creative=YxudJyndSed2kqfC9K7Xig&utm_campaign=yelp_api_v3&utm_medium=api_v3_business_search&utm_source=YxudJyndSed2kqfC9K7Xig", "review_count": 12, "categories": [{"alias": "sushi", "title": "Sushi Bars"}, {"alias": "japanese", "title": "Japanese"}], "rating": 4.5, "coordinates": {"latitude": 37.762682534175774, "longitude": -122.43418692917831}, "transactions": ["pickup", "delivery"], "location": {"address1": "3970 17th St", "address2": null, "address3": "", "city": "San Francisco", "zip_code": "94114", "country": "US", "state": "CA", "display_address": ["3970 17th St", "San Francisco, CA 94114"]}, "phone": "+14156587877", "display_phone": "(415) 658-7877", "distance": 280.6961321681863}, {"id": "Iy804sM-jPIXnxqWMvqtHw", "alias": "au-sushi-san-francisco", "name": "Au Sushi", "image_url": "https://s3-media3.fl.yelpcdn.com/bphoto/zJJtxZYLshYHQo5xpvwctg/o.jpg", "is_closed": false, "url": "https://www.yelp.com/biz/au-sushi-san-francisco?adjust_creative=YxudJyndSed2kqfC9K7Xig&utm_campaign=yelp_api_v3&utm_medium=api_v3_business_search&utm_source=YxudJyndSed2kqfC9K7Xig", "review_count": 119, "categories": [{"alias": "sushi", "title": "Sushi Bars"}, {"alias": "seafood", "title": "Seafood"}, {"alias": "ramen", "title": "Ramen"}], "rating": 4.5, "coordinates": {"latitude": 37.74366, "longitude": -122.43993}, "transactions": ["pickup", "delivery"], "location": {"address1": "5214 Diamond Heights Blvd", "address2": null, "address3": "", "city": "San Francisco", "zip_code": "94131", "country": "US", "state": "CA", "display_address": ["5214 Diamond Heights Blvd", "San Francisco, CA 94131"]}, "phone": "+14154665633", "display_phone": "(415) 466-5633", "distance": 1943.8696303212448}, {"id": "HojJBwz97VzJztVSp7bBow", "alias": "kazoku-sushi-san-francisco", "name": "Kazoku Sushi", "image_url": "https://s3-media1.fl.yelpcdn.com/bphoto/1taO4dZTl5WK2S5RI60hyw/o.jpg", "is_closed": false, "url": "https://www.yelp.com/biz/kazoku-sushi-san-francisco?adjust_creative=YxudJyndSed2kqfC9K7Xig&utm_campaign=yelp_api_v3&utm_medium=api_v3_business_search&utm_source=YxudJyndSed2kqfC9K7Xig", "review_count": 136, "categories": [{"alias": "sushi", "title": "Sushi Bars"}, {"alias": "japanese", "title": "Japanese"}], "rating": 4.5, "coordinates": {"latitude": 37.77561, "longitude": -122.50206}, "transactions": ["pickup", "delivery"], "price": "$$", "location": {"address1": "4036 Balboa St", "address2": null, "address3": "", "city": "San Francisco", "zip_code": "94121", "country": "US", "state": "CA", "display_address": ["4036 Balboa St", "San Francisco, CA 94121"]}, "phone": "+16282803813", "display_phone": "(628) 280-3813", "distance": 6015.0883503389805}, {"id": "2V36BGuNFyrnzYIdsvsehw", "alias": "kuma-sushi-sake-san-francisco", "name": "Kuma Sushi + Sake", "image_url": "https://s3-media1.fl.yelpcdn.com/bphoto/ysW1Qs5V1r0UpeOAcMGdiw/o.jpg", "is_closed": false, "url": "https://www.yelp.com/biz/kuma-sushi-sake-san-francisco?adjust_creative=YxudJyndSed2kqfC9K7Xig&utm_campaign=yelp_api_v3&utm_medium=api_v3_business_search&utm_source=YxudJyndSed2kqfC9K7Xig", "review_count": 475, "categories": [{"alias": "sushi", "title": "Sushi Bars"}, {"alias": "japanese", "title": "Japanese"}], "rating": 4.5, "coordinates": {"latitude": 37.7866996515778, "longitude": -122.419766782189}, "transactions": ["delivery"], "price": "$$$", "location": {"address1": "1040 Polk St", "address2": "", "address3": null, "city": "San Francisco", "zip_code": "94109", "country": "US", "state": "CA", "display_address": ["1040 Polk St", "San Francisco, CA 94109"]}, "phone": "+14159627400", "display_phone": "(415) 962-7400", "distance": 3221.7550093939653}, {"id": "LbluzciGYhn1pKrsQCY1Sw", "alias": "kura-revolving-sushi-bar-san-francisco-2", "name": "Kura Revolving Sushi Bar", "image_url": "https://s3-media4.fl.yelpcdn.com/bphoto/ubm_gZ6XK1Z3lkrWGGplRA/o.jpg", "is_closed": false, "url": "https://www.yelp.com/biz/kura-revolving-sushi-bar-san-francisco-2?adjust_creative=YxudJyndSed2kqfC9K7Xig&utm_campaign=yelp_api_v3&utm_medium=api_v3_business_search&utm_source=YxudJyndSed2kqfC9K7Xig", "review_count": 322, "categories": [{"alias": "sushi", "title": "Sushi Bars"}, {"alias": "conveyorsushi", "title": "Conveyor Belt Sushi"}], "rating": 3.5, "coordinates": {"latitude": 37.72801, "longitude": -122.47719}, "transactions": [], "location": {"address1": "3251 20th Ave", "address2": "Ste 220", "address3": null, "city": "San Francisco", "zip_code": "94132", "country": "US", "state": "CA", "display_address": ["3251 20th Ave", "Ste 220", "San Francisco, CA 94132"]}, "phone": "+16509770707", "display_phone": "(650) 977-0707", "distance": 5119.395364744348}, {"id": "OcRSAkpOhnWHjV7X0FoM5Q", "alias": "j\u016b-ni-san-francisco-5", "name": "j\u016b-ni", "image_url": "https://s3-media3.fl.yelpcdn.com/bphoto/5U5L4nzK9_eptPla0yqu-A/o.jpg", "is_closed": false, "url": "https://www.yelp.com/biz/j%C5%AB-ni-san-francisco-5?adjust_creative=YxudJyndSed2kqfC9K7Xig&utm_campaign=yelp_api_v3&utm_medium=api_v3_business_search&utm_source=YxudJyndSed2kqfC9K7Xig", "review_count": 493, "categories": [{"alias": "japanese", "title": "Japanese"}, {"alias": "sushi", "title": "Sushi Bars"}], "rating": 4.5, "coordinates": {"latitude": 37.77653, "longitude": -122.43883}, "transactions": [], "price": "$$$$", "location": {"address1": "1335 Fulton St", "address2": "Ste 101", "address3": "", "city": "San Francisco", "zip_code": "94117", "country": "US", "state": "CA", "display_address": ["1335 Fulton St", "Ste 101", "San Francisco, CA 94117"]}, "phone": "+14156559924", "display_phone": "(415) 655-9924", "distance": 1757.7177799710257}, {"id": "xeRy4mjZWczet5V9Jtmx1g", "alias": "domo-san-francisco", "name": "Domo", "image_url": "https://s3-media1.fl.yelpcdn.com/bphoto/IPOnFQ7THdGm2z--sYFgdw/o.jpg", "is_closed": false, "url": "https://www.yelp.com/biz/domo-san-francisco?adjust_creative=YxudJyndSed2kqfC9K7Xig&utm_campaign=yelp_api_v3&utm_medium=api_v3_business_search&utm_source=YxudJyndSed2kqfC9K7Xig", "review_count": 968, "categories": [{"alias": "sushi", "title": "Sushi Bars"}, {"alias": "japanese", "title": "Japanese"}], "rating": 4.0, "coordinates": {"latitude": 37.77586, "longitude": -122.42631}, "transactions": ["pickup", "delivery"], "price": "$$", "location": {"address1": "511 Laguna St", "address2": "", "address3": "", "city": "San Francisco", "zip_code": "94102", "country": "US", "state": "CA", "display_address": ["511 Laguna St", "San Francisco, CA 94102"]}, "phone": "+14158618887", "display_phone": "(415) 861-8887", "distance": 1888.4283595034008}, {"id": "6bHDla2n0mBXkeNmsM8_dw", "alias": "sushi-zen-san-francisco", "name": "Sushi Zen", "image_url": "https://s3-media2.fl.yelpcdn.com/bphoto/OetGzTuP2H9EnoigM-e9sQ/o.jpg", "is_closed": false, "url": "https://www.yelp.com/biz/sushi-zen-san-francisco?adjust_creative=YxudJyndSed2kqfC9K7Xig&utm_campaign=yelp_api_v3&utm_medium=api_v3_business_search&utm_source=YxudJyndSed2kqfC9K7Xig", "review_count": 757, "categories": [{"alias": "sushi", "title": "Sushi Bars"}, {"alias": "japanese", "title": "Japanese"}], "rating": 4.0, "coordinates": {"latitude": 37.7428649, "longitude": -122.47745}, "transactions": ["delivery"], "price": "$$", "location": {"address1": "1041 Taraval St", "address2": null, "address3": "", "city": "San Francisco", "zip_code": "94116", "country": "US", "state": "CA", "display_address": ["1041 Taraval St", "San Francisco, CA 94116"]}, "phone": "+14156811789", "display_phone": "(415) 681-1789", "distance": 4125.132602403547}, {"id": "CGhIrUZW4MVprvgqhI222w", "alias": "oki-sushi-san-francisco", "name": "Oki Sushi", "image_url": "https://s3-media3.fl.yelpcdn.com/bphoto/MHroebm2qnZm5qRL51pVcA/o.jpg", "is_closed": false, "url": "https://www.yelp.com/biz/oki-sushi-san-francisco?adjust_creative=YxudJyndSed2kqfC9K7Xig&utm_campaign=yelp_api_v3&utm_medium=api_v3_business_search&utm_source=YxudJyndSed2kqfC9K7Xig", "review_count": 120, "categories": [{"alias": "sushi", "title": "Sushi Bars"}, {"alias": "japanese", "title": "Japanese"}], "rating": 4.5, "coordinates": {"latitude": 37.74307, "longitude": -122.42689}, "transactions": ["pickup", "delivery"], "price": "$$", "location": {"address1": "1740 Church St", "address2": null, "address3": "", "city": "San Francisco", "zip_code": "94131", "country": "US", "state": "CA", "display_address": ["1740 Church St", "San Francisco, CA 94131"]}, "phone": "+14158171094", "display_phone": "(415) 817-1094", "distance": 2151.810859440763}, {"id": "gI7sj-7oCcLuufz0EeLQ1w", "alias": "fenikkusu-san-francisco", "name": "Fenikkusu", "image_url": "https://s3-media4.fl.yelpcdn.com/bphoto/kMMAEmbV2oYXpVtMBQqlWQ/o.jpg", "is_closed": false, "url": "https://www.yelp.com/biz/fenikkusu-san-francisco?adjust_creative=YxudJyndSed2kqfC9K7Xig&utm_campaign=yelp_api_v3&utm_medium=api_v3_business_search&utm_source=YxudJyndSed2kqfC9K7Xig", "review_count": 132, "categories": [{"alias": "japanese", "title": "Japanese"}, {"alias": "tapasmallplates", "title": "Tapas/Small Plates"}], "rating": 4.5, "coordinates": {"latitude": 37.754826, "longitude": -122.422957}, "transactions": ["delivery"], "location": {"address1": "1009 Guerrero St", "address2": null, "address3": "", "city": "San Francisco", "zip_code": "94110", "country": "US", "state": "CA", "display_address": ["1009 Guerrero St", "San Francisco, CA 94110"]}, "phone": "+14159238600", "display_phone": "(415) 923-8600", "distance": 1369.5021798945072}, {"id": "bE_1J-17ut6t6bvNhkkxSw", "alias": "wako-japanese-restaurant-san-francisco", "name": "Wako Japanese Restaurant", "image_url": "https://s3-media2.fl.yelpcdn.com/bphoto/rLCH3Mu6MekaQMlFaoAVYA/o.jpg", "is_closed": false, "url": "https://www.yelp.com/biz/wako-japanese-restaurant-san-francisco?adjust_creative=YxudJyndSed2kqfC9K7Xig&utm_campaign=yelp_api_v3&utm_medium=api_v3_business_search&utm_source=YxudJyndSed2kqfC9K7Xig", "review_count": 771, "categories": [{"alias": "japanese", "title": "Japanese"}, {"alias": "sushi", "title": "Sushi Bars"}], "rating": 4.5, "coordinates": {"latitude": 37.78283, "longitude": -122.46148}, "transactions": [], "price": "$$$$", "location": {"address1": "211 Clement St", "address2": "", "address3": "", "city": "San Francisco", "zip_code": "94118", "country": "US", "state": "CA", "display_address": ["211 Clement St", "San Francisco, CA 94118"]}, "phone": "+14156824875", "display_phone": "(415) 682-4875", "distance": 3295.5870048888887}, {"id": "TF0G4kTPfsnB7yZJHLWJEQ", "alias": "tiny-sushi-oh-baby-daly-city", "name": "Tiny Sushi - Oh Baby", "image_url": "https://s3-media1.fl.yelpcdn.com/bphoto/CDlLAg1zNU_jpnXxQTNToA/o.jpg", "is_closed": false, "url": "https://www.yelp.com/biz/tiny-sushi-oh-baby-daly-city?adjust_creative=YxudJyndSed2kqfC9K7Xig&utm_campaign=yelp_api_v3&utm_medium=api_v3_business_search&utm_source=YxudJyndSed2kqfC9K7Xig", "review_count": 26, "categories": [{"alias": "sushi", "title": "Sushi Bars"}, {"alias": "japanese", "title": "Japanese"}, {"alias": "vegetarian", "title": "Vegetarian"}], "rating": 5.0, "coordinates": {"latitude": 37.7012836, "longitude": -122.48200498220383}, "transactions": [], "location": {"address1": "32 Park Plaza Dr", "address2": null, "address3": "", "city": "Daly City", "zip_code": "94015", "country": "US", "state": "CA", "display_address": ["32 Park Plaza Dr", "Daly City, CA 94015"]}, "phone": "+16507552288", "display_phone": "(650) 755-2288", "distance": 7745.65583138556}, {"id": "qvGED1YA1lt_wrbP92RVZA", "alias": "kibatsu-san-francisco", "name": "Kibatsu", "image_url": "https://s3-media4.fl.yelpcdn.com/bphoto/_f7YHimLXLg95cRapx5rCQ/o.jpg", "is_closed": false, "url": "https://www.yelp.com/biz/kibatsu-san-francisco?adjust_creative=YxudJyndSed2kqfC9K7Xig&utm_campaign=yelp_api_v3&utm_medium=api_v3_business_search&utm_source=YxudJyndSed2kqfC9K7Xig", "review_count": 311, "categories": [{"alias": "sushi", "title": "Sushi Bars"}, {"alias": "japanese", "title": "Japanese"}], "rating": 4.5, "coordinates": {"latitude": 37.77243, "longitude": -122.42899}, "transactions": ["restaurant_reservation", "pickup", "delivery"], "price": "$$$", "location": {"address1": "400 Haight St", "address2": "", "address3": null, "city": "San Francisco", "zip_code": "94117", "country": "US", "state": "CA", "display_address": ["400 Haight St", "San Francisco, CA 94117"]}, "phone": "+14158729636", "display_phone": "(415) 872-9636", "distance": 1444.631536218594}, {"id": "PGOXqUQDznDNGNHbQMWQcg", "alias": "takara-sushi-san-francisco", "name": "Takara Sushi", "image_url": "https://s3-media3.fl.yelpcdn.com/bphoto/we_SRv1zbKXlDecnkxV9ZQ/o.jpg", "is_closed": false, "url": "https://www.yelp.com/biz/takara-sushi-san-francisco?adjust_creative=YxudJyndSed2kqfC9K7Xig&utm_campaign=yelp_api_v3&utm_medium=api_v3_business_search&utm_source=YxudJyndSed2kqfC9K7Xig", "review_count": 337, "categories": [{"alias": "sushi", "title": "Sushi Bars"}, {"alias": "japanese", "title": "Japanese"}], "rating": 4.0, "coordinates": {"latitude": 37.76058, "longitude": -122.43684}, "transactions": ["pickup", "delivery"], "price": "$$", "location": {"address1": "4243 18th St", "address2": "", "address3": "", "city": "San Francisco", "zip_code": "94114", "country": "US", "state": "CA", "display_address": ["4243 18th St", "San Francisco, CA 94114"]}, "phone": "+14156267864", "display_phone": "(415) 626-7864", "distance": 42.382355296878444}, {"id": "4jqo3BvBEiNrvLKJW41Qbg", "alias": "the-public-izakaya-san-francisco", "name": "The Public Izakaya", "image_url": "https://s3-media2.fl.yelpcdn.com/bphoto/5wSMYm8s6Z_OSXI5rRxWIQ/o.jpg", "is_closed": false, "url": "https://www.yelp.com/biz/the-public-izakaya-san-francisco?adjust_creative=YxudJyndSed2kqfC9K7Xig&utm_campaign=yelp_api_v3&utm_medium=api_v3_business_search&utm_source=YxudJyndSed2kqfC9K7Xig", "review_count": 260, "categories": [{"alias": "izakaya", "title": "Izakaya"}, {"alias": "sushi", "title": "Sushi Bars"}, {"alias": "ramen", "title": "Ramen"}], "rating": 4.5, "coordinates": {"latitude": 37.787836462530876, "longitude": -122.413599}, "transactions": [], "price": "$$", "location": {"address1": "700 Post St", "address2": null, "address3": "", "city": "San Francisco", "zip_code": "94109", "country": "US", "state": "CA", "display_address": ["700 Post St", "San Francisco, CA 94109"]}, "phone": "+14156587588", "display_phone": "(415) 658-7588", "distance": 3606.1481462817164}, {"id": "cjfJOMF6hpE7bX0ESWdAEg", "alias": "sanraku-san-francisco-2", "name": "Sanraku", "image_url": "https://s3-media2.fl.yelpcdn.com/bphoto/yo8sm_wnaFXe4kT6LBwUag/o.jpg", "is_closed": false, "url": "https://www.yelp.com/biz/sanraku-san-francisco-2?adjust_creative=YxudJyndSed2kqfC9K7Xig&utm_campaign=yelp_api_v3&utm_medium=api_v3_business_search&utm_source=YxudJyndSed2kqfC9K7Xig", "review_count": 1896, "categories": [{"alias": "japanese", "title": "Japanese"}, {"alias": "sushi", "title": "Sushi Bars"}, {"alias": "asianfusion", "title": "Asian Fusion"}], "rating": 4.0, "coordinates": {"latitude": 37.7889513951509, "longitude": -122.41242887495}, "transactions": ["restaurant_reservation", "delivery"], "price": "$$", "location": {"address1": "704 Sutter St", "address2": "", "address3": "", "city": "San Francisco", "zip_code": "94109", "country": "US", "state": "CA", "display_address": ["704 Sutter St", "San Francisco, CA 94109"]}, "phone": "+14157710803", "display_phone": "(415) 771-0803", "distance": 3766.419072831803}, {"id": "YZrl7W2dewBb-T7e-BxAkQ", "alias": "nara-san-francisco-5", "name": "Nara", "image_url": "https://s3-media1.fl.yelpcdn.com/bphoto/bY-Sms00KuRABBfxbnJQjQ/o.jpg", "is_closed": false, "url": "https://www.yelp.com/biz/nara-san-francisco-5?adjust_creative=YxudJyndSed2kqfC9K7Xig&utm_campaign=yelp_api_v3&utm_medium=api_v3_business_search&utm_source=YxudJyndSed2kqfC9K7Xig", "review_count": 505, "categories": [{"alias": "japanese", "title": "Japanese"}, {"alias": "sushi", "title": "Sushi Bars"}, {"alias": "bars", "title": "Bars"}], "rating": 4.5, "coordinates": {"latitude": 37.790889908718235, "longitude": -122.42094463158013}, "transactions": ["restaurant_reservation"], "price": "$$", "location": {"address1": "1515 Polk St", "address2": "", "address3": null, "city": "San Francisco", "zip_code": "94109", "country": "US", "state": "CA", "display_address": ["1515 Polk St", "San Francisco, CA 94109"]}, "phone": "+14155671515", "display_phone": "(415) 567-1515", "distance": 3602.3969658032584}, {"id": "KarBZT88nFrtDTd-rWkvFQ", "alias": "friends-only-san-francisco", "name": "Friends Only", "image_url": "https://s3-media4.fl.yelpcdn.com/bphoto/lOcZfgYnehlCy9AmuAgNVA/o.jpg", "is_closed": false, "url": "https://www.yelp.com/biz/friends-only-san-francisco?adjust_creative=YxudJyndSed2kqfC9K7Xig&utm_campaign=yelp_api_v3&utm_medium=api_v3_business_search&utm_source=YxudJyndSed2kqfC9K7Xig", "review_count": 10, "categories": [{"alias": "sushi", "title": "Sushi Bars"}], "rating": 5.0, "coordinates": {"latitude": 37.79071643719494, "longitude": -122.4192309879741}, "transactions": [], "location": {"address1": "1501 California St", "address2": "", "address3": null, "city": "San Francisco", "zip_code": "94109", "country": "US", "state": "CA", "display_address": ["1501 California St", "San Francisco, CA 94109"]}, "phone": "", "display_phone": "", "distance": 3644.4609673767354}, {"id": "oUFi1ktJ70H_mfwn-elU0Q", "alias": "sushi-sheng-san-francisco", "name": "Sushi Sheng", "image_url": "https://s3-media1.fl.yelpcdn.com/bphoto/6qmBzBh7y_vs9jR4edQxiw/o.jpg", "is_closed": false, "url": "https://www.yelp.com/biz/sushi-sheng-san-francisco?adjust_creative=YxudJyndSed2kqfC9K7Xig&utm_campaign=yelp_api_v3&utm_medium=api_v3_business_search&utm_source=YxudJyndSed2kqfC9K7Xig", "review_count": 21, "categories": [{"alias": "japanese", "title": "Japanese"}], "rating": 4.0, "coordinates": {"latitude": 37.739632, "longitude": -122.467611}, "transactions": ["pickup", "delivery"], "location": {"address1": "118 W Portal Ave", "address2": null, "address3": "", "city": "San Francisco", "zip_code": "94127", "country": "US", "state": "CA", "display_address": ["118 W Portal Ave", "San Francisco, CA 94127"]}, "phone": "+14158188686", "display_phone": "(415) 818-8686", "distance": 3620.188936173993}, {"id": "EztBa2wTrc8z3DAF0YhtpQ", "alias": "mamanoko-san-francisco-2", "name": "Mamanoko", "image_url": "https://s3-media1.fl.yelpcdn.com/bphoto/88GoHopFjJKv3wBs9V5X6g/o.jpg", "is_closed": false, "url": "https://www.yelp.com/biz/mamanoko-san-francisco-2?adjust_creative=YxudJyndSed2kqfC9K7Xig&utm_campaign=yelp_api_v3&utm_medium=api_v3_business_search&utm_source=YxudJyndSed2kqfC9K7Xig", "review_count": 527, "categories": [{"alias": "japanese", "title": "Japanese"}, {"alias": "cocktailbars", "title": "Cocktail Bars"}, {"alias": "sushi", "title": "Sushi Bars"}], "rating": 4.5, "coordinates": {"latitude": 37.7999557, "longitude": -122.4414378}, "transactions": ["restaurant_reservation", "delivery"], "price": "$$", "location": {"address1": "2317 Chestnut St", "address2": "", "address3": null, "city": "San Francisco", "zip_code": "94123", "country": "US", "state": "CA", "display_address": ["2317 Chestnut St", "San Francisco, CA 94123"]}, "phone": "+14153468494", "display_phone": "(415) 346-8494", "distance": 4364.950481558414}, {"id": "4pYN7UUSaTfJutOfIonlQQ", "alias": "big-fish-house-san-francisco", "name": "Big Fish House", "image_url": "https://s3-media4.fl.yelpcdn.com/bphoto/LBMtoLuIcPovMuNzn6w3ag/o.jpg", "is_closed": false, "url": "https://www.yelp.com/biz/big-fish-house-san-francisco?adjust_creative=YxudJyndSed2kqfC9K7Xig&utm_campaign=yelp_api_v3&utm_medium=api_v3_business_search&utm_source=YxudJyndSed2kqfC9K7Xig", "review_count": 19, "categories": [{"alias": "sushi", "title": "Sushi Bars"}, {"alias": "japanese", "title": "Japanese"}, {"alias": "cocktailbars", "title": "Cocktail Bars"}], "rating": 5.0, "coordinates": {"latitude": 37.781939, "longitude": -122.481961}, "transactions": ["restaurant_reservation"], "location": {"address1": "2109 Clement St", "address2": null, "address3": "", "city": "San Francisco", "zip_code": "94121", "country": "US", "state": "CA", "display_address": ["2109 Clement St", "San Francisco, CA 94121"]}, "phone": "+14159339388", "display_phone": "(415) 933-9388", "distance": 4635.300387144905}, {"id": "cWpnb38gytXaY5Bxr_Kd5g", "alias": "nakama-sushi-san-francisco", "name": "NAKAMA Sushi", "image_url": "https://s3-media3.fl.yelpcdn.com/bphoto/VJ3tr0wer4rdAX1qtg5KOg/o.jpg", "is_closed": false, "url": "https://www.yelp.com/biz/nakama-sushi-san-francisco?adjust_creative=YxudJyndSed2kqfC9K7Xig&utm_campaign=yelp_api_v3&utm_medium=api_v3_business_search&utm_source=YxudJyndSed2kqfC9K7Xig", "review_count": 192, "categories": [{"alias": "japanese", "title": "Japanese"}, {"alias": "sushi", "title": "Sushi Bars"}], "rating": 4.5, "coordinates": {"latitude": 37.77482717258473, "longitude": -122.42101687725595}, "transactions": ["delivery"], "location": {"address1": "41 Franklin St", "address2": "", "address3": null, "city": "San Francisco", "zip_code": "94102", "country": "US", "state": "CA", "display_address": ["41 Franklin St", "San Francisco, CA 94102"]}, "phone": "+16288676697", "display_phone": "(628) 867-6697", "distance": 2058.6500796660757}, {"id": "JYEvnDneqP96BhoWyLGfjQ", "alias": "serendipity-san-francisco-5", "name": "Serendipity", "image_url": "https://s3-media3.fl.yelpcdn.com/bphoto/lNXesNOB0i2g8vJlACyrQA/o.jpg", "is_closed": false, "url": "https://www.yelp.com/biz/serendipity-san-francisco-5?adjust_creative=YxudJyndSed2kqfC9K7Xig&utm_campaign=yelp_api_v3&utm_medium=api_v3_business_search&utm_source=YxudJyndSed2kqfC9K7Xig", "review_count": 13, "categories": [{"alias": "japanese", "title": "Japanese"}, {"alias": "sushi", "title": "Sushi Bars"}], "rating": 4.5, "coordinates": {"latitude": 37.782205, "longitude": -122.486263}, "transactions": ["pickup", "delivery"], "location": {"address1": "2512 Clement St", "address2": null, "address3": "", "city": "San Francisco", "zip_code": "94121", "country": "US", "state": "CA", "display_address": ["2512 Clement St", "San Francisco, CA 94121"]}, "phone": "+14157539617", "display_phone": "(415) 753-9617", "distance": 4984.329629064856}, {"id": "4GAsfSjaB1XewzS3TKOtTg", "alias": "koo-san-francisco", "name": "Koo", "image_url": "https://s3-media1.fl.yelpcdn.com/bphoto/eY4AG9QFrSVW9pG47FdMeA/o.jpg", "is_closed": false, "url": "https://www.yelp.com/biz/koo-san-francisco?adjust_creative=YxudJyndSed2kqfC9K7Xig&utm_campaign=yelp_api_v3&utm_medium=api_v3_business_search&utm_source=YxudJyndSed2kqfC9K7Xig", "review_count": 1154, "categories": [{"alias": "japanese", "title": "Japanese"}, {"alias": "sushi", "title": "Sushi Bars"}], "rating": 4.0, "coordinates": {"latitude": 37.764358548011, "longitude": -122.46248724056164}, "transactions": ["delivery"], "price": "$$$", "location": {"address1": "408 Irving St", "address2": "", "address3": "", "city": "San Francisco", "zip_code": "94122", "country": "US", "state": "CA", "display_address": ["408 Irving St", "San Francisco, CA 94122"]}, "phone": "+14157317077", "display_phone": "(415) 731-7077", "distance": 2321.16071395463}, {"id": "NH1tpRk-TypznNFACTTDuw", "alias": "sasa-japanese-restaurant-san-francisco-2", "name": "Sasa Japanese restaurant", "image_url": "https://s3-media2.fl.yelpcdn.com/bphoto/NKFJdDitG29ghcbJy2Btsg/o.jpg", "is_closed": false, "url": "https://www.yelp.com/biz/sasa-japanese-restaurant-san-francisco-2?adjust_creative=YxudJyndSed2kqfC9K7Xig&utm_campaign=yelp_api_v3&utm_medium=api_v3_business_search&utm_source=YxudJyndSed2kqfC9K7Xig", "review_count": 509, "categories": [{"alias": "japanese", "title": "Japanese"}, {"alias": "sushi", "title": "Sushi Bars"}], "rating": 4.0, "coordinates": {"latitude": 37.78529586206246, "longitude": -122.42936446719457}, "transactions": ["restaurant_reservation", "pickup", "delivery"], "price": "$$$", "location": {"address1": "22 Peace Plz", "address2": "Ste 530", "address3": null, "city": "San Francisco", "zip_code": "94115", "country": "US", "state": "CA", "display_address": ["22 Peace Plz", "Ste 530", "San Francisco, CA 94115"]}, "phone": "+16286006945", "display_phone": "(628) 600-6945", "distance": 2783.2716753136556}, {"id": "ckODORoRx3w9UHu8Llb3Pg", "alias": "elephant-sushi-san-francisco-9", "name": "Elephant Sushi", "image_url": "https://s3-media4.fl.yelpcdn.com/bphoto/0cJqJfB8xvu8U1YWyzYh1w/o.jpg", "is_closed": false, "url": "https://www.yelp.com/biz/elephant-sushi-san-francisco-9?adjust_creative=YxudJyndSed2kqfC9K7Xig&utm_campaign=yelp_api_v3&utm_medium=api_v3_business_search&utm_source=YxudJyndSed2kqfC9K7Xig", "review_count": 123, "categories": [{"alias": "sushi", "title": "Sushi Bars"}, {"alias": "cocktailbars", "title": "Cocktail Bars"}], "rating": 4.0, "coordinates": {"latitude": 37.77792, "longitude": -122.42335}, "transactions": ["pickup", "delivery"], "location": {"address1": "400 Grove St", "address2": "Ste C1", "address3": null, "city": "San Francisco", "zip_code": "94102", "country": "US", "state": "CA", "display_address": ["400 Grove St", "Ste C1", "San Francisco, CA 94102"]}, "phone": "+14154004018", "display_phone": "(415) 400-4018", "distance": 2204.396828765284}, {"id": "imHjAJ9uuUK_PNkzT9kCag", "alias": "basa-seafood-express-san-francisco", "name": "Basa Seafood Express", "image_url": "https://s3-media4.fl.yelpcdn.com/bphoto/SV_BUHgxzaIlWE9aOeS1Cg/o.jpg", "is_closed": false, "url": "https://www.yelp.com/biz/basa-seafood-express-san-francisco?adjust_creative=YxudJyndSed2kqfC9K7Xig&utm_campaign=yelp_api_v3&utm_medium=api_v3_business_search&utm_source=YxudJyndSed2kqfC9K7Xig", "review_count": 990, "categories": [{"alias": "seafood", "title": "Seafood"}, {"alias": "sandwiches", "title": "Sandwiches"}, {"alias": "burgers", "title": "Burgers"}], "rating": 4.5, "coordinates": {"latitude": 37.75276, "longitude": -122.41338}, "transactions": ["pickup", "delivery"], "price": "$$", "location": {"address1": "3064 24th St", "address2": "", "address3": "", "city": "San Francisco", "zip_code": "94110", "country": "US", "state": "CA", "display_address": ["3064 24th St", "San Francisco, CA 94110"]}, "phone": "+14155502388", "display_phone": "(415) 550-2388", "distance": 2222.594636885032}, {"id": "md19wETpeFhjh4MkFi029A", "alias": "oma-san-francisco-station-san-francisco-2", "name": "Oma San Francisco Station", "image_url": "https://s3-media4.fl.yelpcdn.com/bphoto/HdV7X_uujsq8ja4v5h11SQ/o.jpg", "is_closed": false, "url": "https://www.yelp.com/biz/oma-san-francisco-station-san-francisco-2?adjust_creative=YxudJyndSed2kqfC9K7Xig&utm_campaign=yelp_api_v3&utm_medium=api_v3_business_search&utm_source=YxudJyndSed2kqfC9K7Xig", "review_count": 289, "categories": [{"alias": "sushi", "title": "Sushi Bars"}, {"alias": "japanese", "title": "Japanese"}], "rating": 4.5, "coordinates": {"latitude": 37.785103, "longitude": -122.430974}, "transactions": ["pickup", "delivery"], "price": "$$$$", "location": {"address1": "1737 Post St", "address2": "Ste 337", "address3": null, "city": "San Francisco", "zip_code": "94115", "country": "US", "state": "CA", "display_address": ["1737 Post St", "Ste 337", "San Francisco, CA 94115"]}, "phone": "", "display_phone": "", "distance": 2733.96989598124}, {"id": "RUgAfwdOtDdu1m4COkz7sA", "alias": "dash-japanese-tapas-and-sushi-san-francisco", "name": "Dash Japanese Tapas & Sushi", "image_url": "https://s3-media2.fl.yelpcdn.com/bphoto/FXfsHa5wpH3ILkyCAiWltQ/o.jpg", "is_closed": false, "url": "https://www.yelp.com/biz/dash-japanese-tapas-and-sushi-san-francisco?adjust_creative=YxudJyndSed2kqfC9K7Xig&utm_campaign=yelp_api_v3&utm_medium=api_v3_business_search&utm_source=YxudJyndSed2kqfC9K7Xig", "review_count": 37, "categories": [{"alias": "sushi", "title": "Sushi Bars"}, {"alias": "japanese", "title": "Japanese"}, {"alias": "tapas", "title": "Tapas Bars"}], "rating": 4.5, "coordinates": {"latitude": 37.75153071507041, "longitude": -122.4361737}, "transactions": ["pickup", "delivery"], "location": {"address1": "737 Diamond St", "address2": null, "address3": "", "city": "San Francisco", "zip_code": "94114", "country": "US", "state": "CA", "display_address": ["737 Diamond St", "San Francisco, CA 94114"]}, "phone": "+14156559197", "display_phone": "(415) 655-9197", "distance": 1042.0252673450186}, {"id": "ba82pLmI2zFk0ayiCQoPJQ", "alias": "sushi-uma-san-francisco", "name": "Sushi Uma", "image_url": "https://s3-media2.fl.yelpcdn.com/bphoto/7HcvVulHDZRZHCS9Ln8K5w/o.jpg", "is_closed": false, "url": "https://www.yelp.com/biz/sushi-uma-san-francisco?adjust_creative=YxudJyndSed2kqfC9K7Xig&utm_campaign=yelp_api_v3&utm_medium=api_v3_business_search&utm_source=YxudJyndSed2kqfC9K7Xig", "review_count": 357, "categories": [{"alias": "sushi", "title": "Sushi Bars"}, {"alias": "japanese", "title": "Japanese"}], "rating": 4.0, "coordinates": {"latitude": 37.76365953043274, "longitude": -122.4798127310173}, "transactions": ["pickup", "delivery"], "price": "$$", "location": {"address1": "2026 Irving St", "address2": null, "address3": "", "city": "San Francisco", "zip_code": "94122", "country": "US", "state": "CA", "display_address": ["2026 Irving St", "San Francisco, CA 94122"]}, "phone": "+14159689933", "display_phone": "(415) 968-9933", "distance": 3824.429327123331}, {"id": "6L6kz5GVJqJIyM0SuWyPDQ", "alias": "yuji-san-francisco", "name": "Yuji", "image_url": "https://s3-media1.fl.yelpcdn.com/bphoto/VXxQ2P2YhEyp6mF7eh1uOA/o.jpg", "is_closed": false, "url": "https://www.yelp.com/biz/yuji-san-francisco?adjust_creative=YxudJyndSed2kqfC9K7Xig&utm_campaign=yelp_api_v3&utm_medium=api_v3_business_search&utm_source=YxudJyndSed2kqfC9K7Xig", "review_count": 33, "categories": [{"alias": "japanese", "title": "Japanese"}], "rating": 5.0, "coordinates": {"latitude": 37.7857557, "longitude": -122.4301162}, "transactions": [], "location": {"address1": "1700 post st", "address2": "Unit K", "address3": "", "city": "San Francisco", "zip_code": "94115", "country": "US", "state": "CA", "display_address": ["1700 post st", "Unit K", "San Francisco, CA 94115"]}, "phone": "+14156587128", "display_phone": "(415) 658-7128", "distance": 2819.349668193275}, {"id": "3cLA9tLm7zCfEpeRTAeVmw", "alias": "yoji-sushi-house-san-francisco-3", "name": "Yoji Sushi House", "image_url": "https://s3-media1.fl.yelpcdn.com/bphoto/L7bJRF24_ouLwPshSLWHVA/o.jpg", "is_closed": false, "url": "https://www.yelp.com/biz/yoji-sushi-house-san-francisco-3?adjust_creative=YxudJyndSed2kqfC9K7Xig&utm_campaign=yelp_api_v3&utm_medium=api_v3_business_search&utm_source=YxudJyndSed2kqfC9K7Xig", "review_count": 351, "categories": [{"alias": "sushi", "title": "Sushi Bars"}, {"alias": "japanese", "title": "Japanese"}], "rating": 4.0, "coordinates": {"latitude": 37.74738, "longitude": -122.45952}, "transactions": ["pickup", "restaurant_reservation", "delivery"], "price": "$$", "location": {"address1": "406 Dewey Blvd", "address2": "", "address3": "", "city": "San Francisco", "zip_code": "94116", "country": "US", "state": "CA", "display_address": ["406 Dewey Blvd", "San Francisco, CA 94116"]}, "phone": "+14156810128", "display_phone": "(415) 681-0128", "distance": 2526.924354290505}, {"id": "f3ekmqWreEhlrxRWDNBHDw", "alias": "dragon-horse-san-francisco", "name": "Dragon Horse", "image_url": "https://s3-media1.fl.yelpcdn.com/bphoto/6b4JaaAQ_m21o2FVFJ0BPg/o.jpg", "is_closed": false, "url": "https://www.yelp.com/biz/dragon-horse-san-francisco?adjust_creative=YxudJyndSed2kqfC9K7Xig&utm_campaign=yelp_api_v3&utm_medium=api_v3_business_search&utm_source=YxudJyndSed2kqfC9K7Xig", "review_count": 59, "categories": [{"alias": "cocktailbars", "title": "Cocktail Bars"}, {"alias": "japanese", "title": "Japanese"}], "rating": 4.5, "coordinates": {"latitude": 37.779785, "longitude": -122.403601}, "transactions": ["restaurant_reservation"], "location": {"address1": "917 Folsom St", "address2": null, "address3": "", "city": "San Francisco", "zip_code": "94107", "country": "US", "state": "CA", "display_address": ["917 Folsom St", "San Francisco, CA 94107"]}, "phone": "", "display_phone": "", "distance": 3568.5792766880054}, {"id": "kjckqShnIlDeraGJM3Nw4w", "alias": "o-toro-sushi-san-francisco", "name": "O-Toro Sushi", "image_url": "https://s3-media1.fl.yelpcdn.com/bphoto/K29jh-j_Nixf5w-XQloaUg/o.jpg", "is_closed": false, "url": "https://www.yelp.com/biz/o-toro-sushi-san-francisco?adjust_creative=YxudJyndSed2kqfC9K7Xig&utm_campaign=yelp_api_v3&utm_medium=api_v3_business_search&utm_source=YxudJyndSed2kqfC9K7Xig", "review_count": 907, "categories": [{"alias": "japanese", "title": "Japanese"}, {"alias": "sushi", "title": "Sushi Bars"}], "rating": 4.0, "coordinates": {"latitude": 37.774921, "longitude": -122.422997}, "transactions": ["pickup", "delivery"], "price": "$$", "location": {"address1": "205 Oak St", "address2": "", "address3": "", "city": "San Francisco", "zip_code": "94102", "country": "US", "state": "CA", "display_address": ["205 Oak St", "San Francisco, CA 94102"]}, "phone": "+14155533986", "display_phone": "(415) 553-3986", "distance": 1956.686228824613}, {"id": "wSsuLcdgXat_g69PswYWxw", "alias": "ichika-sushi-house-brisbane", "name": "Ichika Sushi House", "image_url": "https://s3-media3.fl.yelpcdn.com/bphoto/AFE4nVLEFW1A5CTRjqT2jw/o.jpg", "is_closed": false, "url": "https://www.yelp.com/biz/ichika-sushi-house-brisbane?adjust_creative=YxudJyndSed2kqfC9K7Xig&utm_campaign=yelp_api_v3&utm_medium=api_v3_business_search&utm_source=YxudJyndSed2kqfC9K7Xig", "review_count": 736, "categories": [{"alias": "japanese", "title": "Japanese"}, {"alias": "sushi", "title": "Sushi Bars"}, {"alias": "seafood", "title": "Seafood"}], "rating": 4.5, "coordinates": {"latitude": 37.68559, "longitude": -122.39976}, "transactions": ["pickup", "delivery"], "price": "$$", "location": {"address1": "118 Old County Rd", "address2": null, "address3": "", "city": "Brisbane", "zip_code": "94005", "country": "US", "state": "CA", "display_address": ["118 Old County Rd", "Brisbane, CA 94005"]}, "phone": "+14158255790", "display_phone": "(415) 825-5790", "distance": 8944.94073431498}, {"id": "3tn9eZJhlhdSBwux440nSA", "alias": "chome-san-francisco-3", "name": "Chome", "image_url": "https://s3-media4.fl.yelpcdn.com/bphoto/lQvJugCqhIIiWlY0Aq-J5A/o.jpg", "is_closed": false, "url": "https://www.yelp.com/biz/chome-san-francisco-3?adjust_creative=YxudJyndSed2kqfC9K7Xig&utm_campaign=yelp_api_v3&utm_medium=api_v3_business_search&utm_source=YxudJyndSed2kqfC9K7Xig", "review_count": 284, "categories": [{"alias": "izakaya", "title": "Izakaya"}, {"alias": "gastropubs", "title": "Gastropubs"}, {"alias": "ramen", "title": "Ramen"}], "rating": 4.5, "coordinates": {"latitude": 37.76209, "longitude": -122.41924}, "transactions": [], "price": "$$", "location": {"address1": "2193 Mission St", "address2": null, "address3": "", "city": "San Francisco", "zip_code": "94110", "country": "US", "state": "CA", "display_address": ["2193 Mission St", "San Francisco, CA 94110"]}, "phone": "+14157570922", "display_phone": "(415) 757-0922", "distance": 1522.809008746427}, {"id": "oibaW-5yuiKVS5o_CcvzIg", "alias": "izakaya-mayumi-san-francisco", "name": "Izakaya Mayumi", "image_url": "https://s3-media3.fl.yelpcdn.com/bphoto/_IxWij_wtjQ0f4qfXj2qBA/o.jpg", "is_closed": false, "url": "https://www.yelp.com/biz/izakaya-mayumi-san-francisco?adjust_creative=YxudJyndSed2kqfC9K7Xig&utm_campaign=yelp_api_v3&utm_medium=api_v3_business_search&utm_source=YxudJyndSed2kqfC9K7Xig", "review_count": 106, "categories": [{"alias": "izakaya", "title": "Izakaya"}], "rating": 4.5, "coordinates": {"latitude": 37.78195, "longitude": -122.48316}, "transactions": ["restaurant_reservation", "pickup", "delivery"], "location": {"address1": "2221 Clement St", "address2": "", "address3": null, "city": "San Francisco", "zip_code": "94121", "country": "US", "state": "CA", "display_address": ["2221 Clement St", "San Francisco, CA 94121"]}, "phone": "+14157424159", "display_phone": "(415) 742-4159", "distance": 4727.4974345442415}, {"id": "ViuPAl51xDM3lIxT3KzXKA", "alias": "fuji-steakhouse-and-sushi-bar-gulf-breeze-3", "name": "Fuji Steakhouse & Sushi Bar", "image_url": "https://s3-media2.fl.yelpcdn.com/bphoto/byjDe59fR7TY92X6oURtxQ/o.jpg", "is_closed": true, "url": "https://www.yelp.com/biz/fuji-steakhouse-and-sushi-bar-gulf-breeze-3?adjust_creative=YxudJyndSed2kqfC9K7Xig&utm_campaign=yelp_api_v3&utm_medium=api_v3_business_search&utm_source=YxudJyndSed2kqfC9K7Xig", "review_count": 48, "categories": [{"alias": "steak", "title": "Steakhouses"}, {"alias": "sushi", "title": "Sushi Bars"}], "rating": 4.0, "coordinates": {"latitude": 30.35684, "longitude": -87.16515}, "transactions": [], "price": "$$", "location": {"address1": "1385 Shoreline Dr", "address2": null, "address3": null, "city": "Gulf Breeze", "zip_code": "32561", "country": "US", "state": "FL", "display_address": ["1385 Shoreline Dr", "Gulf Breeze, FL 32561"]}, "phone": "", "display_phone": "", "distance": 2162.186714403771}, {"id": "TmXkYM0N-FjrMasxj5uXsA", "alias": "sushi-bistro-san-francisco", "name": "Sushi Bistro", "image_url": "https://s3-media2.fl.yelpcdn.com/bphoto/Uo9YbTWfVTVlwJIoGwk1yA/o.jpg", "is_closed": false, "url": "https://www.yelp.com/biz/sushi-bistro-san-francisco?adjust_creative=YxudJyndSed2kqfC9K7Xig&utm_campaign=yelp_api_v3&utm_medium=api_v3_business_search&utm_source=YxudJyndSed2kqfC9K7Xig", "review_count": 1552, "categories": [{"alias": "sushi", "title": "Sushi Bars"}, {"alias": "japanese", "title": "Japanese"}], "rating": 4.0, "coordinates": {"latitude": 37.7774247, "longitude": -122.4638799}, "transactions": ["pickup", "delivery"], "price": "$$", "location": {"address1": "452 Balboa St", "address2": "", "address3": "", "city": "San Francisco", "zip_code": "94118", "country": "US", "state": "CA", "display_address": ["452 Balboa St", "San Francisco, CA 94118"]}, "phone": "+14159337100", "display_phone": "(415) 933-7100", "distance": 3031.6294865000023}, {"id": "BLcV0Z4nzKLkCjneKrTclA", "alias": "tekka-japanese-restaurant-san-francisco", "name": "Tekka Japanese Restaurant", "image_url": "https://s3-media1.fl.yelpcdn.com/bphoto/H1Rw-EqpBfh3_fZTD_RdTA/o.jpg", "is_closed": false, "url": "https://www.yelp.com/biz/tekka-japanese-restaurant-san-francisco?adjust_creative=YxudJyndSed2kqfC9K7Xig&utm_campaign=yelp_api_v3&utm_medium=api_v3_business_search&utm_source=YxudJyndSed2kqfC9K7Xig", "review_count": 440, "categories": [{"alias": "japanese", "title": "Japanese"}, {"alias": "sushi", "title": "Sushi Bars"}], "rating": 4.0, "coordinates": {"latitude": 37.7770524, "longitude": -122.4647183}, "transactions": ["delivery"], "price": "$$$", "location": {"address1": "537 Balboa St", "address2": "", "address3": "", "city": "San Francisco", "zip_code": "94118", "country": "US", "state": "CA", "display_address": ["537 Balboa St", "San Francisco, CA 94118"]}, "phone": "", "display_phone": "", "distance": 3066.1848590815976}, {"id": "OZAZSQnvAGeETvoKRSEbuQ", "alias": "warakubune-sushi-san-francisco", "name": "Warakubune Sushi", "image_url": "https://s3-media2.fl.yelpcdn.com/bphoto/_9LTxpxWxrCrUdl_KBadjg/o.jpg", "is_closed": false, "url": "https://www.yelp.com/biz/warakubune-sushi-san-francisco?adjust_creative=YxudJyndSed2kqfC9K7Xig&utm_campaign=yelp_api_v3&utm_medium=api_v3_business_search&utm_source=YxudJyndSed2kqfC9K7Xig", "review_count": 630, "categories": [{"alias": "conveyorsushi", "title": "Conveyor Belt Sushi"}], "rating": 4.0, "coordinates": {"latitude": 37.76506098729687, "longitude": -122.42871383832136}, "transactions": ["delivery"], "price": "$$", "location": {"address1": "307 Church St", "address2": "", "address3": "", "city": "San Francisco", "zip_code": "94114", "country": "US", "state": "CA", "display_address": ["307 Church St", "San Francisco, CA 94114"]}, "phone": "+14152528383", "display_phone": "(415) 252-8383", "distance": 822.3503778879423}, {"id": "LDqA7rQ3fCmPWFymhIXXcQ", "alias": "sakesan-sushi-and-bistro-san-francisco-2", "name": "Sakesan Sushi & Bistro", "image_url": "https://s3-media2.fl.yelpcdn.com/bphoto/ZGDmAxFMtHMFtbFTVcgj7Q/o.jpg", "is_closed": false, "url": "https://www.yelp.com/biz/sakesan-sushi-and-bistro-san-francisco-2?adjust_creative=YxudJyndSed2kqfC9K7Xig&utm_campaign=yelp_api_v3&utm_medium=api_v3_business_search&utm_source=YxudJyndSed2kqfC9K7Xig", "review_count": 1194, "categories": [{"alias": "japanese", "title": "Japanese"}, {"alias": "karaoke", "title": "Karaoke"}, {"alias": "sushi", "title": "Sushi Bars"}], "rating": 4.0, "coordinates": {"latitude": 37.7830613, "longitude": -122.466063}, "transactions": ["pickup", "restaurant_reservation", "delivery"], "price": "$$", "location": {"address1": "626 Clement St", "address2": null, "address3": "", "city": "San Francisco", "zip_code": "94118", "country": "US", "state": "CA", "display_address": ["626 Clement St", "San Francisco, CA 94118"]}, "phone": "+14158766313", "display_phone": "(415) 876-6313", "distance": 3584.507149023519}, {"id": "P3bTmEqA5yRiiOCD3KoFeg", "alias": "okane-san-francisco", "name": "Okane", "image_url": "https://s3-media2.fl.yelpcdn.com/bphoto/T2JmykzAbmayqVwwJAeaEg/o.jpg", "is_closed": false, "url": "https://www.yelp.com/biz/okane-san-francisco?adjust_creative=YxudJyndSed2kqfC9K7Xig&utm_campaign=yelp_api_v3&utm_medium=api_v3_business_search&utm_source=YxudJyndSed2kqfC9K7Xig", "review_count": 444, "categories": [{"alias": "sushi", "title": "Sushi Bars"}, {"alias": "izakaya", "title": "Izakaya"}], "rating": 4.0, "coordinates": {"latitude": 37.77039, "longitude": -122.40269}, "transactions": ["pickup", "delivery"], "price": "$$", "location": {"address1": "669 Townsend St", "address2": null, "address3": "", "city": "San Francisco", "zip_code": "94103", "country": "US", "state": "CA", "display_address": ["669 Townsend St", "San Francisco, CA 94103"]}, "phone": "+14158659788", "display_phone": "(415) 865-9788", "distance": 3130.979240734975}, {"id": "Y8QT8TKQMRUiU76-PKi8Wg", "alias": "sake-bomb-san-francisco", "name": "Sake Bomb", "image_url": "https://s3-media2.fl.yelpcdn.com/bphoto/C8XBwj8tI1WpzKUmbr8O6g/o.jpg", "is_closed": false, "url": "https://www.yelp.com/biz/sake-bomb-san-francisco?adjust_creative=YxudJyndSed2kqfC9K7Xig&utm_campaign=yelp_api_v3&utm_medium=api_v3_business_search&utm_source=YxudJyndSed2kqfC9K7Xig", "review_count": 170, "categories": [{"alias": "japanese", "title": "Japanese"}, {"alias": "sushi", "title": "Sushi Bars"}], "rating": 4.5, "coordinates": {"latitude": 37.75288, "longitude": -122.40984}, "transactions": ["restaurant_reservation", "pickup", "delivery"], "price": "$$", "location": {"address1": "2878 24th St", "address2": null, "address3": "", "city": "San Francisco", "zip_code": "94110", "country": "US", "state": "CA", "display_address": ["2878 24th St", "San Francisco, CA 94110"]}, "phone": "+14158242878", "display_phone": "(415) 824-2878", "distance": 2496.8723694594883}, {"id": "pKP6ikrLyM5Gtua13kVoUw", "alias": "izakaya-sozai-san-francisco", "name": "Izakaya Sozai", "image_url": "https://s3-media3.fl.yelpcdn.com/bphoto/RlRIrTScFIOSxcwdQgZc5w/o.jpg", "is_closed": false, "url": "https://www.yelp.com/biz/izakaya-sozai-san-francisco?adjust_creative=YxudJyndSed2kqfC9K7Xig&utm_campaign=yelp_api_v3&utm_medium=api_v3_business_search&utm_source=YxudJyndSed2kqfC9K7Xig", "review_count": 2171, "categories": [{"alias": "ramen", "title": "Ramen"}, {"alias": "izakaya", "title": "Izakaya"}, {"alias": "noodles", "title": "Noodles"}], "rating": 4.0, "coordinates": {"latitude": 37.76384193832725, "longitude": -122.47413}, "transactions": ["delivery"], "price": "$$", "location": {"address1": "1500 Irving St", "address2": null, "address3": "", "city": "San Francisco", "zip_code": "94122", "country": "US", "state": "CA", "display_address": ["1500 Irving St", "San Francisco, CA 94122"]}, "phone": "+14153719721", "display_phone": "(415) 371-9721", "distance": 3328.6644653594262}, {"id": "u35gZWb4c5he7ery5uR1Nw", "alias": "teruaki-san-francisco-2", "name": "Teruaki", "image_url": "https://s3-media2.fl.yelpcdn.com/bphoto/3e6Oq94z3wc_IOoVaSoOFQ/o.jpg", "is_closed": false, "url": "https://www.yelp.com/biz/teruaki-san-francisco-2?adjust_creative=YxudJyndSed2kqfC9K7Xig&utm_campaign=yelp_api_v3&utm_medium=api_v3_business_search&utm_source=YxudJyndSed2kqfC9K7Xig", "review_count": 3, "categories": [{"alias": "japanese", "title": "Japanese"}, {"alias": "sushi", "title": "Sushi Bars"}, {"alias": "seafood", "title": "Seafood"}], "rating": 5.0, "coordinates": {"latitude": 37.77952789065567, "longitude": -122.49351079271807}, "transactions": ["pickup", "delivery"], "location": {"address1": "6903 Geary Blvd", "address2": null, "address3": "", "city": "San Francisco", "zip_code": "94121", "country": "US", "state": "CA", "display_address": ["6903 Geary Blvd", "San Francisco, CA 94121"]}, "phone": "+14157424003", "display_phone": "(415) 742-4003", "distance": 5426.591060615199}, {"id": "U0GqpXzcIDlad7vQHbB63Q", "alias": "kusakabe-san-francisco", "name": "KUSAKABE", "image_url": "https://s3-media2.fl.yelpcdn.com/bphoto/KSWgIn6l2QWxpRBHTNOpsg/o.jpg", "is_closed": false, "url": "https://www.yelp.com/biz/kusakabe-san-francisco?adjust_creative=YxudJyndSed2kqfC9K7Xig&utm_campaign=yelp_api_v3&utm_medium=api_v3_business_search&utm_source=YxudJyndSed2kqfC9K7Xig", "review_count": 1038, "categories": [{"alias": "sushi", "title": "Sushi Bars"}, {"alias": "japanese", "title": "Japanese"}], "rating": 4.5, "coordinates": {"latitude": 37.7957017702111, "longitude": -122.402884835582}, "transactions": ["pickup", "delivery"], "price": "$$$$", "location": {"address1": "584 Washington St", "address2": "", "address3": "", "city": "San Francisco", "zip_code": "94111", "country": "US", "state": "CA", "display_address": ["584 Washington St", "San Francisco, CA 94111"]}, "phone": "+14157570155", "display_phone": "(415) 757-0155", "distance": 4865.835208903343}, {"id": "xlrbrMiIgSv0RBjI5g4mYw", "alias": "chisai-sushi-club-san-francisco-2", "name": "Chisai Sushi Club", "image_url": "https://s3-media4.fl.yelpcdn.com/bphoto/DzBCyqXsWW7_dvn42o_t1A/o.jpg", "is_closed": false, "url": "https://www.yelp.com/biz/chisai-sushi-club-san-francisco-2?adjust_creative=YxudJyndSed2kqfC9K7Xig&utm_campaign=yelp_api_v3&utm_medium=api_v3_business_search&utm_source=YxudJyndSed2kqfC9K7Xig", "review_count": 138, "categories": [{"alias": "sushi", "title": "Sushi Bars"}, {"alias": "japanese", "title": "Japanese"}], "rating": 4.5, "coordinates": {"latitude": 37.74263, "longitude": -122.42155}, "transactions": [], "price": "$$$$", "location": {"address1": "3369 Mission St", "address2": "", "address3": null, "city": "San Francisco", "zip_code": "94110", "country": "US", "state": "CA", "display_address": ["3369 Mission St", "San Francisco, CA 94110"]}, "phone": "", "display_phone": "", "distance": 2414.0087506419295}, {"id": "OzFb5aZuA3RGV_YZlxorNg", "alias": "sushi-time-san-francisco-2", "name": "Sushi Time", "image_url": "https://s3-media3.fl.yelpcdn.com/bphoto/zB7tue2F8hXv9PG9jP8wNA/o.jpg", "is_closed": false, "url": "https://www.yelp.com/biz/sushi-time-san-francisco-2?adjust_creative=YxudJyndSed2kqfC9K7Xig&utm_campaign=yelp_api_v3&utm_medium=api_v3_business_search&utm_source=YxudJyndSed2kqfC9K7Xig", "review_count": 731, "categories": [{"alias": "japanese", "title": "Japanese"}, {"alias": "sushi", "title": "Sushi Bars"}], "rating": 4.0, "coordinates": {"latitude": 37.76455, "longitude": -122.43206}, "transactions": ["pickup", "delivery"], "price": "$$", "location": {"address1": "2275 Market St", "address2": "", "address3": "", "city": "San Francisco", "zip_code": "94114", "country": "US", "state": "CA", "display_address": ["2275 Market St", "San Francisco, CA 94114"]}, "phone": "+14155522280", "display_phone": "(415) 552-2280", "distance": 564.1407845315962}, {"id": "hCFuRFfIC-JfNQQsrkmHJA", "alias": "sancha-sushi-san-francisco-2", "name": "Sancha Sushi", "image_url": "https://s3-media3.fl.yelpcdn.com/bphoto/yfwanBZqCHgmAcnItKl39A/o.jpg", "is_closed": false, "url": "https://www.yelp.com/biz/sancha-sushi-san-francisco-2?adjust_creative=YxudJyndSed2kqfC9K7Xig&utm_campaign=yelp_api_v3&utm_medium=api_v3_business_search&utm_source=YxudJyndSed2kqfC9K7Xig", "review_count": 45, "categories": [{"alias": "sushi", "title": "Sushi Bars"}, {"alias": "japanese", "title": "Japanese"}], "rating": 4.5, "coordinates": {"latitude": 37.76678, "longitude": -122.42852}, "transactions": ["pickup", "delivery"], "location": {"address1": "253 Church St", "address2": "", "address3": null, "city": "San Francisco", "zip_code": "94114", "country": "US", "state": "CA", "display_address": ["253 Church St", "San Francisco, CA 94114"]}, "phone": "+14158749335", "display_phone": "(415) 874-9335", "distance": 952.3949566040617}, {"id": "bUllrq8bcGbn9TKtVcjL-A", "alias": "izakaya-yoki-san-francisco-2", "name": "Izakaya Yoki", "image_url": "https://s3-media2.fl.yelpcdn.com/bphoto/Nn-JV7RE8teR0wWSU0MaOQ/o.jpg", "is_closed": false, "url": "https://www.yelp.com/biz/izakaya-yoki-san-francisco-2?adjust_creative=YxudJyndSed2kqfC9K7Xig&utm_campaign=yelp_api_v3&utm_medium=api_v3_business_search&utm_source=YxudJyndSed2kqfC9K7Xig", "review_count": 454, "categories": [{"alias": "japanese", "title": "Japanese"}, {"alias": "korean", "title": "Korean"}], "rating": 4.5, "coordinates": {"latitude": 37.789884, "longitude": -122.412317}, "transactions": ["restaurant_reservation", "pickup", "delivery"], "price": "$$", "location": {"address1": "900 Bush St", "address2": "Ste C101", "address3": null, "city": "San Francisco", "zip_code": "94109", "country": "US", "state": "CA", "display_address": ["900 Bush St", "Ste C101", "San Francisco, CA 94109"]}, "phone": "+14159231141", "display_phone": "(415) 923-1141", "distance": 3858.1284480407476}, {"id": "5HA7OuFkkN76mBiJmI-MoA", "alias": "eat-sushi-san-francisco-5", "name": "Eat Sushi", "image_url": "https://s3-media1.fl.yelpcdn.com/bphoto/u1MZd8QHANbBdfKaBcmV3A/o.jpg", "is_closed": false, "url": "https://www.yelp.com/biz/eat-sushi-san-francisco-5?adjust_creative=YxudJyndSed2kqfC9K7Xig&utm_campaign=yelp_api_v3&utm_medium=api_v3_business_search&utm_source=YxudJyndSed2kqfC9K7Xig", "review_count": 248, "categories": [{"alias": "sushi", "title": "Sushi Bars"}, {"alias": "ramen", "title": "Ramen"}], "rating": 4.5, "coordinates": {"latitude": 37.771858, "longitude": -122.4145603}, "transactions": ["restaurant_reservation", "pickup", "delivery"], "price": "$$", "location": {"address1": "1516 Folsom St", "address2": null, "address3": "", "city": "San Francisco", "zip_code": "94103", "country": "US", "state": "CA", "display_address": ["1516 Folsom St", "San Francisco, CA 94103"]}, "phone": "+14153551288", "display_phone": "(415) 355-1288", "distance": 2277.3112876367445}, {"id": "s2f2diwImCaaui2SDpNh-A", "alias": "yuubi-japanese-restaurant-san-francisco", "name": "Yuubi Japanese Restaurant", "image_url": "https://s3-media2.fl.yelpcdn.com/bphoto/n2K17UyfRdixZeCX6fV2Bw/o.jpg", "is_closed": false, "url": "https://www.yelp.com/biz/yuubi-japanese-restaurant-san-francisco?adjust_creative=YxudJyndSed2kqfC9K7Xig&utm_campaign=yelp_api_v3&utm_medium=api_v3_business_search&utm_source=YxudJyndSed2kqfC9K7Xig", "review_count": 562, "categories": [{"alias": "japanese", "title": "Japanese"}, {"alias": "sushi", "title": "Sushi Bars"}, {"alias": "seafood", "title": "Seafood"}], "rating": 4.0, "coordinates": {"latitude": 37.77708, "longitude": -122.46428}, "transactions": ["pickup", "delivery"], "price": "$$", "location": {"address1": "501 Balboa St", "address2": "", "address3": "", "city": "San Francisco", "zip_code": "94118", "country": "US", "state": "CA", "display_address": ["501 Balboa St", "San Francisco, CA 94118"]}, "phone": "+14153862011", "display_phone": "(415) 386-2011", "distance": 3037.614819904897}, {"id": "yD9-WrXijc_grVmi_zkCfQ", "alias": "hinata-san-francisco", "name": "Hinata", "image_url": "https://s3-media3.fl.yelpcdn.com/bphoto/dnMeVoIsByVCcsRDbJMqWw/o.jpg", "is_closed": false, "url": "https://www.yelp.com/biz/hinata-san-francisco?adjust_creative=YxudJyndSed2kqfC9K7Xig&utm_campaign=yelp_api_v3&utm_medium=api_v3_business_search&utm_source=YxudJyndSed2kqfC9K7Xig", "review_count": 709, "categories": [{"alias": "sushi", "title": "Sushi Bars"}, {"alias": "japanese", "title": "Japanese"}], "rating": 4.5, "coordinates": {"latitude": 37.78324, "longitude": -122.42048}, "transactions": [], "price": "$$$$", "location": {"address1": "810 Van Ness Ave", "address2": null, "address3": "", "city": "San Francisco", "zip_code": "94109", "country": "US", "state": "CA", "display_address": ["810 Van Ness Ave", "San Francisco, CA 94109"]}, "phone": "+14158298291", "display_phone": "(415) 829-8291", "distance": 2833.377489987141}, {"id": "3MRyd2-Zx9smDLXWPAL3kw", "alias": "sushi-hon-san-francisco", "name": "Sushi Hon", "image_url": "https://s3-media1.fl.yelpcdn.com/bphoto/2eeUk9qkznmwUuw02DT-rA/o.jpg", "is_closed": false, "url": "https://www.yelp.com/biz/sushi-hon-san-francisco?adjust_creative=YxudJyndSed2kqfC9K7Xig&utm_campaign=yelp_api_v3&utm_medium=api_v3_business_search&utm_source=YxudJyndSed2kqfC9K7Xig", "review_count": 494, "categories": [{"alias": "japanese", "title": "Japanese"}, {"alias": "sushi", "title": "Sushi Bars"}], "rating": 4.5, "coordinates": {"latitude": 37.7559672710911, "longitude": -122.41243198514}, "transactions": ["restaurant_reservation"], "price": "$$$$", "location": {"address1": "2598 Harrison St", "address2": "", "address3": "", "city": "San Francisco", "zip_code": "94110", "country": "US", "state": "CA", "display_address": ["2598 Harrison St", "San Francisco, CA 94110"]}, "phone": "+14155254527", "display_phone": "(415) 525-4527", "distance": 2181.255715616739}, {"id": "S91SPDiE-VGsOQHVBEuKHw", "alias": "hot-zushi-san-francisco", "name": "Hot Zushi", "image_url": "https://s3-media4.fl.yelpcdn.com/bphoto/-xyF4KYyejDbmQ5kYi-blQ/o.jpg", "is_closed": false, "url": "https://www.yelp.com/biz/hot-zushi-san-francisco?adjust_creative=YxudJyndSed2kqfC9K7Xig&utm_campaign=yelp_api_v3&utm_medium=api_v3_business_search&utm_source=YxudJyndSed2kqfC9K7Xig", "review_count": 190, "categories": [{"alias": "japanese", "title": "Japanese"}, {"alias": "sushi", "title": "Sushi Bars"}], "rating": 4.5, "coordinates": {"latitude": 37.7718463870564, "longitude": -122.430961020291}, "transactions": ["delivery"], "price": "$$", "location": {"address1": "531 Haight St", "address2": "", "address3": "", "city": "San Francisco", "zip_code": "94117", "country": "US", "state": "CA", "display_address": ["531 Haight St", "San Francisco, CA 94117"]}, "phone": "+14158638638", "display_phone": "(415) 863-8638", "distance": 1309.2927622895606}, {"id": "x8KjU6JY64bXo60Tktu4PQ", "alias": "kiki-japanese-restaurant-san-francisco", "name": "Kiki Japanese Restaurant", "image_url": "https://s3-media2.fl.yelpcdn.com/bphoto/DGWlRX0H_oPM70f9iqg4Sw/o.jpg", "is_closed": false, "url": "https://www.yelp.com/biz/kiki-japanese-restaurant-san-francisco?adjust_creative=YxudJyndSed2kqfC9K7Xig&utm_campaign=yelp_api_v3&utm_medium=api_v3_business_search&utm_source=YxudJyndSed2kqfC9K7Xig", "review_count": 1050, "categories": [{"alias": "japanese", "title": "Japanese"}, {"alias": "sushi", "title": "Sushi Bars"}], "rating": 3.5, "coordinates": {"latitude": 37.764642, "longitude": -122.46647}, "transactions": ["pickup", "delivery"], "price": "$$", "location": {"address1": "1269 9th Ave", "address2": "", "address3": "", "city": "San Francisco", "zip_code": "94122", "country": "US", "state": "CA", "display_address": ["1269 9th Ave", "San Francisco, CA 94122"]}, "phone": "+14156615522", "display_phone": "(415) 661-5522", "distance": 2671.780701480108}, {"id": "xVwK6SkuJ_Gu0sIXLBZiIQ", "alias": "genji-san-francisco-2", "name": "Genji", "image_url": "https://s3-media1.fl.yelpcdn.com/bphoto/BgBrIqddN-B77I_AptYrwg/o.jpg", "is_closed": false, "url": "https://www.yelp.com/biz/genji-san-francisco-2?adjust_creative=YxudJyndSed2kqfC9K7Xig&utm_campaign=yelp_api_v3&utm_medium=api_v3_business_search&utm_source=YxudJyndSed2kqfC9K7Xig", "review_count": 1, "categories": [{"alias": "sushi", "title": "Sushi Bars"}, {"alias": "japanese", "title": "Japanese"}], "rating": 5.0, "coordinates": {"latitude": 37.7809844, "longitude": -122.3996495}, "transactions": [], "location": {"address1": "399 4th St", "address2": "", "address3": "Whole Foods Market", "city": "San Francisco", "zip_code": "94107", "country": "US", "state": "CA", "display_address": ["399 4th St", "Whole Foods Market", "San Francisco, CA 94107"]}, "phone": "+14156180066", "display_phone": "(415) 618-0066", "distance": 3938.5721290665347}, {"id": "M175LTlKPJjAWREIUPyMGg", "alias": "sushi-zone-san-francisco", "name": "Sushi Zone", "image_url": "https://s3-media3.fl.yelpcdn.com/bphoto/ya4k4gZnOCVbypJSxC3i2A/o.jpg", "is_closed": false, "url": "https://www.yelp.com/biz/sushi-zone-san-francisco?adjust_creative=YxudJyndSed2kqfC9K7Xig&utm_campaign=yelp_api_v3&utm_medium=api_v3_business_search&utm_source=YxudJyndSed2kqfC9K7Xig", "review_count": 1090, "categories": [{"alias": "sushi", "title": "Sushi Bars"}, {"alias": "japanese", "title": "Japanese"}], "rating": 4.5, "coordinates": {"latitude": 37.7711651322979, "longitude": -122.423915188557}, "transactions": ["delivery"], "price": "$$", "location": {"address1": "1815 Market St", "address2": "", "address3": "", "city": "San Francisco", "zip_code": "94103", "country": "US", "state": "CA", "display_address": ["1815 Market St", "San Francisco, CA 94103"]}, "phone": "+14156211114", "display_phone": "(415) 621-1114", "distance": 1586.3447736863648}, {"id": "czbXSfezN_DK8Ws0vcFqhg", "alias": "elephant-sushi-san-francisco", "name": "Elephant Sushi", "image_url": "https://s3-media2.fl.yelpcdn.com/bphoto/HFEoalnUVnzwzbpGaNWC3A/o.jpg", "is_closed": false, "url": "https://www.yelp.com/biz/elephant-sushi-san-francisco?adjust_creative=YxudJyndSed2kqfC9K7Xig&utm_campaign=yelp_api_v3&utm_medium=api_v3_business_search&utm_source=YxudJyndSed2kqfC9K7Xig", "review_count": 900, "categories": [{"alias": "sushi", "title": "Sushi Bars"}, {"alias": "japanese", "title": "Japanese"}], "rating": 4.0, "coordinates": {"latitude": 37.7986649, "longitude": -122.4187868}, "transactions": ["pickup", "delivery"], "price": "$$$", "location": {"address1": "1916 Hyde St", "address2": "", "address3": "", "city": "San Francisco", "zip_code": "94109", "country": "US", "state": "CA", "display_address": ["1916 Hyde St", "San Francisco, CA 94109"]}, "phone": "+14154401905", "display_phone": "(415) 440-1905", "distance": 4476.9765635890235}, {"id": "A0AG2SpXxkIyq6x8HyTuSA", "alias": "kaiju-eats-ramen-and-izakaya-san-francisco-3", "name": "Kaiju Eats Ramen and Izakaya", "image_url": "https://s3-media2.fl.yelpcdn.com/bphoto/5p4-SeOKC5XMb_yRNoNCfg/o.jpg", "is_closed": false, "url": "https://www.yelp.com/biz/kaiju-eats-ramen-and-izakaya-san-francisco-3?adjust_creative=YxudJyndSed2kqfC9K7Xig&utm_campaign=yelp_api_v3&utm_medium=api_v3_business_search&utm_source=YxudJyndSed2kqfC9K7Xig", "review_count": 913, "categories": [{"alias": "sushi", "title": "Sushi Bars"}, {"alias": "ramen", "title": "Ramen"}, {"alias": "izakaya", "title": "Izakaya"}], "rating": 4.0, "coordinates": {"latitude": 37.781106, "longitude": -122.455533}, "transactions": ["pickup", "delivery"], "price": "$$", "location": {"address1": "3409 Geary Blvd", "address2": "", "address3": "", "city": "San Francisco", "zip_code": "94118", "country": "US", "state": "CA", "display_address": ["3409 Geary Blvd", "San Francisco, CA 94118"]}, "phone": "+14157424309", "display_phone": "(415) 742-4309", "distance": 2804.040413057605}, {"id": "7iiWJyo_N5rGz4agqe9EbA", "alias": "kabuto-restaurant-san-francisco", "name": "Kabuto Restaurant", "image_url": "https://s3-media2.fl.yelpcdn.com/bphoto/2DuOnL5WSIVyczqNVE9WMg/o.jpg", "is_closed": false, "url": "https://www.yelp.com/biz/kabuto-restaurant-san-francisco?adjust_creative=YxudJyndSed2kqfC9K7Xig&utm_campaign=yelp_api_v3&utm_medium=api_v3_business_search&utm_source=YxudJyndSed2kqfC9K7Xig", "review_count": 1122, "categories": [{"alias": "sushi", "title": "Sushi Bars"}, {"alias": "japanese", "title": "Japanese"}], "rating": 4.0, "coordinates": {"latitude": 37.78031, "longitude": -122.47441}, "transactions": ["restaurant_reservation", "delivery"], "price": "$$$", "location": {"address1": "5121 Geary Blvd", "address2": "", "address3": "", "city": "San Francisco", "zip_code": "94118", "country": "US", "state": "CA", "display_address": ["5121 Geary Blvd", "San Francisco, CA 94118"]}, "phone": "+14157525652", "display_phone": "(415) 752-5652", "distance": 3974.7650899912555}, {"id": "QWZO1RdLbG5h0RGDiItoAA", "alias": "zaoh-restaurant-san-francisco", "name": "Zaoh Restaurant", "image_url": "https://s3-media3.fl.yelpcdn.com/bphoto/vwfE4NWNJrmxHVIkkY7nfw/o.jpg", "is_closed": false, "url": "https://www.yelp.com/biz/zaoh-restaurant-san-francisco?adjust_creative=YxudJyndSed2kqfC9K7Xig&utm_campaign=yelp_api_v3&utm_medium=api_v3_business_search&utm_source=YxudJyndSed2kqfC9K7Xig", "review_count": 361, "categories": [{"alias": "sushi", "title": "Sushi Bars"}, {"alias": "japanese", "title": "Japanese"}], "rating": 4.0, "coordinates": {"latitude": 37.7733077, "longitude": -122.41804976441779}, "transactions": ["pickup", "delivery"], "price": "$$", "location": {"address1": "1555 Mission St", "address2": "", "address3": "", "city": "San Francisco", "zip_code": "94103", "country": "US", "state": "CA", "display_address": ["1555 Mission St", "San Francisco, CA 94103"]}, "phone": "+14154313930", "display_phone": "(415) 431-3930", "distance": 2125.7479286509883}, {"id": "sZPWB4TTX06W5Ht5kv7qdg", "alias": "sushi-kazu-san-francisco", "name": "Sushi Kazu", "image_url": "https://s3-media4.fl.yelpcdn.com/bphoto/klDDW_OD56IVfWdhj2I5ng/o.jpg", "is_closed": false, "url": "https://www.yelp.com/biz/sushi-kazu-san-francisco?adjust_creative=YxudJyndSed2kqfC9K7Xig&utm_campaign=yelp_api_v3&utm_medium=api_v3_business_search&utm_source=YxudJyndSed2kqfC9K7Xig", "review_count": 388, "categories": [{"alias": "japanese", "title": "Japanese"}, {"alias": "sushi", "title": "Sushi Bars"}], "rating": 4.0, "coordinates": {"latitude": 37.76384, "longitude": -122.46708}, "transactions": ["delivery"], "price": "$$", "location": {"address1": "841 Irving St", "address2": "", "address3": "", "city": "San Francisco", "zip_code": "94122", "country": "US", "state": "CA", "display_address": ["841 Irving St", "San Francisco, CA 94122"]}, "phone": "+14156815539", "display_phone": "(415) 681-5539", "distance": 2717.6788798287794}, {"id": "j_YtZXamd5GHfL-BhfkiLQ", "alias": "live-sushi-bar-san-francisco", "name": "Live Sushi Bar", "image_url": "https://s3-media1.fl.yelpcdn.com/bphoto/gSkrRZcZi3_lAfXBcZTfdA/o.jpg", "is_closed": false, "url": "https://www.yelp.com/biz/live-sushi-bar-san-francisco?adjust_creative=YxudJyndSed2kqfC9K7Xig&utm_campaign=yelp_api_v3&utm_medium=api_v3_business_search&utm_source=YxudJyndSed2kqfC9K7Xig", "review_count": 1338, "categories": [{"alias": "sushi", "title": "Sushi Bars"}, {"alias": "japanese", "title": "Japanese"}, {"alias": "bars", "title": "Bars"}], "rating": 4.0, "coordinates": {"latitude": 37.764681, "longitude": -122.4036308}, "transactions": ["pickup", "delivery"], "price": "$$", "location": {"address1": "2001 17th St", "address2": "", "address3": "", "city": "San Francisco", "zip_code": "94103", "country": "US", "state": "CA", "display_address": ["2001 17th St", "San Francisco, CA 94103"]}, "phone": "+14158618610", "display_phone": "(415) 861-8610", "distance": 2915.218739647693}, {"id": "fV-FyAnmdzJr9gAKtotXiA", "alias": "kamekyo-san-francisco", "name": "Kamekyo", "image_url": "https://s3-media3.fl.yelpcdn.com/bphoto/NXvglXhduBB-1bggDAuWrA/o.jpg", "is_closed": false, "url": "https://www.yelp.com/biz/kamekyo-san-francisco?adjust_creative=YxudJyndSed2kqfC9K7Xig&utm_campaign=yelp_api_v3&utm_medium=api_v3_business_search&utm_source=YxudJyndSed2kqfC9K7Xig", "review_count": 265, "categories": [{"alias": "sushi", "title": "Sushi Bars"}, {"alias": "japanese", "title": "Japanese"}, {"alias": "salad", "title": "Salad"}], "rating": 3.5, "coordinates": {"latitude": 37.7651946, "longitude": -122.4500132}, "transactions": ["delivery"], "price": "$$", "location": {"address1": "943 Cole St", "address2": "", "address3": "", "city": "San Francisco", "zip_code": "94117", "country": "US", "state": "CA", "display_address": ["943 Cole St", "San Francisco, CA 94117"]}, "phone": "+14157598428", "display_phone": "(415) 759-8428", "distance": 1284.6099506993392}, {"id": "29T0l-SaSX4i8m-FBEGN4A", "alias": "salmon-bar-san-francisco-2", "name": "Salmon Bar", "image_url": "https://s3-media1.fl.yelpcdn.com/bphoto/lARCZTdWvoERSaKkJkhILQ/o.jpg", "is_closed": false, "url": "https://www.yelp.com/biz/salmon-bar-san-francisco-2?adjust_creative=YxudJyndSed2kqfC9K7Xig&utm_campaign=yelp_api_v3&utm_medium=api_v3_business_search&utm_source=YxudJyndSed2kqfC9K7Xig", "review_count": 87, "categories": [{"alias": "seafood", "title": "Seafood"}, {"alias": "japanese", "title": "Japanese"}, {"alias": "wine_bars", "title": "Wine Bars"}], "rating": 5.0, "coordinates": {"latitude": 37.7649064, "longitude": -122.4244975}, "transactions": ["restaurant_reservation", "pickup", "delivery"], "price": "$$", "location": {"address1": "3214 16th St", "address2": null, "address3": "", "city": "San Francisco", "zip_code": "94103", "country": "US", "state": "CA", "display_address": ["3214 16th St", "San Francisco, CA 94103"]}, "phone": "+16282134221", "display_phone": "(628) 213-4221", "distance": 1139.0684179311227}, {"id": "Ucm6J4WfF3ipGwpTuxH05g", "alias": "saru-handroll-bar-san-francisco-2", "name": "Saru Handroll Bar", "image_url": "https://s3-media1.fl.yelpcdn.com/bphoto/fGgbCHMTq0XVZAYIdLq00g/o.jpg", "is_closed": false, "url": "https://www.yelp.com/biz/saru-handroll-bar-san-francisco-2?adjust_creative=YxudJyndSed2kqfC9K7Xig&utm_campaign=yelp_api_v3&utm_medium=api_v3_business_search&utm_source=YxudJyndSed2kqfC9K7Xig", "review_count": 88, "categories": [{"alias": "sushi", "title": "Sushi Bars"}, {"alias": "japanese", "title": "Japanese"}, {"alias": "seafood", "title": "Seafood"}], "rating": 4.5, "coordinates": {"latitude": 37.797109, "longitude": -122.421801}, "transactions": [], "price": "$$$", "location": {"address1": "2206 Polk St", "address2": null, "address3": "", "city": "San Francisco", "zip_code": "94109", "country": "US", "state": "CA", "display_address": ["2206 Polk St", "San Francisco, CA 94109"]}, "phone": "+14158759798", "display_phone": "(415) 875-9798", "distance": 4227.3754953571015}, {"id": "zWpV3kVw1CO9Fb3JroQpqw", "alias": "an-japanese-restaurant-san-francisco-2", "name": "An Japanese Restaurant", "image_url": "https://s3-media4.fl.yelpcdn.com/bphoto/dMhZf2qR4HmITplATfgi8w/o.jpg", "is_closed": false, "url": "https://www.yelp.com/biz/an-japanese-restaurant-san-francisco-2?adjust_creative=YxudJyndSed2kqfC9K7Xig&utm_campaign=yelp_api_v3&utm_medium=api_v3_business_search&utm_source=YxudJyndSed2kqfC9K7Xig", "review_count": 182, "categories": [{"alias": "sushi", "title": "Sushi Bars"}, {"alias": "japanese", "title": "Japanese"}], "rating": 4.5, "coordinates": {"latitude": 37.7850737295732, "longitude": -122.428939975798}, "transactions": ["delivery"], "price": "$$$$", "location": {"address1": "22 Peace Plz", "address2": "Ste 510", "address3": "", "city": "San Francisco", "zip_code": "94115", "country": "US", "state": "CA", "display_address": ["22 Peace Plz", "Ste 510", "San Francisco, CA 94115"]}, "phone": "+14152507276", "display_phone": "(415) 250-7276", "distance": 2767.859559800693}, {"id": "8VurRDEj1RpimenhgTmyFQ", "alias": "kaiy\u014d-rooftop-san-francisco-5", "name": "KAIY\u014c Rooftop", "image_url": "https://s3-media4.fl.yelpcdn.com/bphoto/IpnkGDpsm94wGzTAdFekPg/o.jpg", "is_closed": false, "url": "https://www.yelp.com/biz/kaiy%C5%8D-rooftop-san-francisco-5?adjust_creative=YxudJyndSed2kqfC9K7Xig&utm_campaign=yelp_api_v3&utm_medium=api_v3_business_search&utm_source=YxudJyndSed2kqfC9K7Xig", "review_count": 582, "categories": [{"alias": "peruvian", "title": "Peruvian"}, {"alias": "cocktailbars", "title": "Cocktail Bars"}, {"alias": "sushi", "title": "Sushi Bars"}], "rating": 4.0, "coordinates": {"latitude": 37.77882, "longitude": -122.3924}, "transactions": [], "location": {"address1": "701 3rd St", "address2": "Fl 12", "address3": "", "city": "San Francisco", "zip_code": "94105", "country": "US", "state": "CA", "display_address": ["701 3rd St", "Fl 12", "San Francisco, CA 94105"]}, "phone": "+14158008141", "display_phone": "(415) 800-8141", "distance": 4355.096615628698}, {"id": "29lhGyTOtiWGkLCWDJZZFg", "alias": "cha-ya-san-francisco-san-francisco-2", "name": "Cha-Ya San Francisco", "image_url": "https://s3-media1.fl.yelpcdn.com/bphoto/-gYz6UxuDcXApmqE3WT_mA/o.jpg", "is_closed": false, "url": "https://www.yelp.com/biz/cha-ya-san-francisco-san-francisco-2?adjust_creative=YxudJyndSed2kqfC9K7Xig&utm_campaign=yelp_api_v3&utm_medium=api_v3_business_search&utm_source=YxudJyndSed2kqfC9K7Xig", "review_count": 1284, "categories": [{"alias": "japanese", "title": "Japanese"}, {"alias": "vegetarian", "title": "Vegetarian"}, {"alias": "vegan", "title": "Vegan"}], "rating": 4.0, "coordinates": {"latitude": 37.760753, "longitude": -122.421787}, "transactions": ["pickup", "delivery"], "price": "$$", "location": {"address1": "762 Valencia St", "address2": "", "address3": "", "city": "San Francisco", "zip_code": "94110", "country": "US", "state": "CA", "display_address": ["762 Valencia St", "San Francisco, CA 94110"]}, "phone": "+14152527825", "display_phone": "(415) 252-7825", "distance": 1288.8423998336536}, {"id": "PoFvHQnaktxW15e-uMDAdA", "alias": "hakashi-japanese-sushi-bar-and-grill-san-francisco-2", "name": "Hakashi Japanese Sushi Bar & Grill", "image_url": "https://s3-media4.fl.yelpcdn.com/bphoto/72WQKf-B1McXfPhlDDGvig/o.jpg", "is_closed": false, "url": "https://www.yelp.com/biz/hakashi-japanese-sushi-bar-and-grill-san-francisco-2?adjust_creative=YxudJyndSed2kqfC9K7Xig&utm_campaign=yelp_api_v3&utm_medium=api_v3_business_search&utm_source=YxudJyndSed2kqfC9K7Xig", "review_count": 493, "categories": [{"alias": "sushi", "title": "Sushi Bars"}, {"alias": "japanese", "title": "Japanese"}], "rating": 4.0, "coordinates": {"latitude": 37.781481382384, "longitude": -122.396296}, "transactions": ["pickup", "delivery"], "price": "$$", "location": {"address1": "474 3rd St", "address2": null, "address3": "", "city": "San Francisco", "zip_code": "94107", "country": "US", "state": "CA", "display_address": ["474 3rd St", "San Francisco, CA 94107"]}, "phone": "+14158729589", "display_phone": "(415) 872-9589", "distance": 4206.220080833507}, {"id": "ZNj4xwodItEfFofNYxMEhw", "alias": "the-shota-san-francisco", "name": "The Shota", "image_url": "https://s3-media2.fl.yelpcdn.com/bphoto/gP2sC7GR4ruoY2wCs_qMnw/o.jpg", "is_closed": false, "url": "https://www.yelp.com/biz/the-shota-san-francisco?adjust_creative=YxudJyndSed2kqfC9K7Xig&utm_campaign=yelp_api_v3&utm_medium=api_v3_business_search&utm_source=YxudJyndSed2kqfC9K7Xig", "review_count": 268, "categories": [{"alias": "japanese", "title": "Japanese"}, {"alias": "sushi", "title": "Sushi Bars"}], "rating": 5.0, "coordinates": {"latitude": 37.79142, "longitude": -122.40103}, "transactions": ["delivery"], "price": "$$$$", "location": {"address1": "115 Sansome St", "address2": null, "address3": "", "city": "San Francisco", "zip_code": "94104", "country": "US", "state": "CA", "display_address": ["115 Sansome St", "San Francisco, CA 94104"]}, "phone": "+16282242074", "display_phone": "(628) 224-2074", "distance": 4604.5099889230805}, {"id": "6TZrECrbULijNtm84Pw7Iw", "alias": "kui-shin-bo-san-francisco-4", "name": "Kui Shin Bo", "image_url": "https://s3-media1.fl.yelpcdn.com/bphoto/o7_3fRBV7lF6i7SO-ZJ_ig/o.jpg", "is_closed": false, "url": "https://www.yelp.com/biz/kui-shin-bo-san-francisco-4?adjust_creative=YxudJyndSed2kqfC9K7Xig&utm_campaign=yelp_api_v3&utm_medium=api_v3_business_search&utm_source=YxudJyndSed2kqfC9K7Xig", "review_count": 266, "categories": [{"alias": "sushi", "title": "Sushi Bars"}, {"alias": "ramen", "title": "Ramen"}], "rating": 4.0, "coordinates": {"latitude": 37.801531, "longitude": -122.425215}, "transactions": ["restaurant_reservation", "pickup", "delivery"], "price": "$$", "location": {"address1": "1424 Lombard St", "address2": "", "address3": null, "city": "San Francisco", "zip_code": "94123", "country": "US", "state": "CA", "display_address": ["1424 Lombard St", "San Francisco, CA 94123"]}, "phone": "+14156559496", "display_phone": "(415) 655-9496", "distance": 4621.190035558087}, {"id": "PNxwbgtfdpldd3CyJFIw3w", "alias": "ozumo-san-francisco", "name": "Ozumo", "image_url": "https://s3-media1.fl.yelpcdn.com/bphoto/CwICqfpKNu9TUwsAgScriA/o.jpg", "is_closed": false, "url": "https://www.yelp.com/biz/ozumo-san-francisco?adjust_creative=YxudJyndSed2kqfC9K7Xig&utm_campaign=yelp_api_v3&utm_medium=api_v3_business_search&utm_source=YxudJyndSed2kqfC9K7Xig", "review_count": 2642, "categories": [{"alias": "sushi", "title": "Sushi Bars"}, {"alias": "japanese", "title": "Japanese"}, {"alias": "steak", "title": "Steakhouses"}], "rating": 4.0, "coordinates": {"latitude": 37.792673, "longitude": -122.392236}, "transactions": ["pickup", "delivery"], "price": "$$$", "location": {"address1": "161 Steuart St", "address2": "", "address3": "", "city": "San Francisco", "zip_code": "94105", "country": "US", "state": "CA", "display_address": ["161 Steuart St", "San Francisco, CA 94105"]}, "phone": "+14158821333", "display_phone": "(415) 882-1333", "distance": 5250.752014599581}, {"id": "9ht48XpxXki1Io169oaiPg", "alias": "akari-japanese-bistro-san-francisco", "name": "Akari Japanese Bistro", "image_url": "https://s3-media3.fl.yelpcdn.com/bphoto/YoQeSklGwaNgBo9vEyiekQ/o.jpg", "is_closed": false, "url": "https://www.yelp.com/biz/akari-japanese-bistro-san-francisco?adjust_creative=YxudJyndSed2kqfC9K7Xig&utm_campaign=yelp_api_v3&utm_medium=api_v3_business_search&utm_source=YxudJyndSed2kqfC9K7Xig", "review_count": 27, "categories": [{"alias": "japanese", "title": "Japanese"}], "rating": 5.0, "coordinates": {"latitude": 37.775639, "longitude": -122.408832}, "transactions": ["pickup", "delivery"], "price": "$$$$", "location": {"address1": "1155 Folsom St", "address2": "", "address3": null, "city": "San Francisco", "zip_code": "94103", "country": "US", "state": "CA", "display_address": ["1155 Folsom St", "San Francisco, CA 94103"]}, "phone": "+14158152407", "display_phone": "(415) 815-2407", "distance": 2928.663806944005}, {"id": "NMTWmJKWxJD1flwkn7JIPA", "alias": "ace-wasabi-rock-n-roll-sushi-san-francisco", "name": "Ace Wasabi  Rock-N-Roll Sushi", "image_url": "https://s3-media2.fl.yelpcdn.com/bphoto/SppInj14R92gWmNjhZTG5Q/o.jpg", "is_closed": false, "url": "https://www.yelp.com/biz/ace-wasabi-rock-n-roll-sushi-san-francisco?adjust_creative=YxudJyndSed2kqfC9K7Xig&utm_campaign=yelp_api_v3&utm_medium=api_v3_business_search&utm_source=YxudJyndSed2kqfC9K7Xig", "review_count": 1052, "categories": [{"alias": "sushi", "title": "Sushi Bars"}, {"alias": "japanese", "title": "Japanese"}], "rating": 4.0, "coordinates": {"latitude": 37.80016, "longitude": -122.43813}, "transactions": ["pickup", "delivery"], "price": "$$", "location": {"address1": "3339 Steiner St", "address2": "", "address3": "", "city": "San Francisco", "zip_code": "94123", "country": "US", "state": "CA", "display_address": ["3339 Steiner St", "San Francisco, CA 94123"]}, "phone": "+14159681644", "display_phone": "(415) 968-1644", "distance": 4371.288520776773}, {"id": "k96DVqIsqpuCTWb-X2hXJg", "alias": "mizutani-sushi-bar-san-francisco", "name": "Mizutani Sushi Bar", "image_url": "https://s3-media2.fl.yelpcdn.com/bphoto/yEL1Q1Dmt6YPcZpGtXjhaA/o.jpg", "is_closed": false, "url": "https://www.yelp.com/biz/mizutani-sushi-bar-san-francisco?adjust_creative=YxudJyndSed2kqfC9K7Xig&utm_campaign=yelp_api_v3&utm_medium=api_v3_business_search&utm_source=YxudJyndSed2kqfC9K7Xig", "review_count": 218, "categories": [{"alias": "sushi", "title": "Sushi Bars"}], "rating": 4.0, "coordinates": {"latitude": 37.7851982116699, "longitude": -122.464859008789}, "transactions": ["pickup", "delivery"], "price": "$$", "location": {"address1": "4406 California St", "address2": null, "address3": "", "city": "San Francisco", "zip_code": "94118", "country": "US", "state": "CA", "display_address": ["4406 California St", "San Francisco, CA 94118"]}, "phone": "+14156683288", "display_phone": "(415) 668-3288", "distance": 3679.335383907432}, {"id": "kcMcsRZfP3vtBcAFZR11LA", "alias": "sqwers-izakaya-and-sushi-bar-san-francisco-2", "name": "SQwers Izakaya & Sushi Bar", "image_url": "https://s3-media3.fl.yelpcdn.com/bphoto/tU1gh41ddonJ1bSzQODAEQ/o.jpg", "is_closed": false, "url": "https://www.yelp.com/biz/sqwers-izakaya-and-sushi-bar-san-francisco-2?adjust_creative=YxudJyndSed2kqfC9K7Xig&utm_campaign=yelp_api_v3&utm_medium=api_v3_business_search&utm_source=YxudJyndSed2kqfC9K7Xig", "review_count": 318, "categories": [{"alias": "japanese", "title": "Japanese"}, {"alias": "sushi", "title": "Sushi Bars"}], "rating": 4.0, "coordinates": {"latitude": 37.7819297, "longitude": -122.4512143}, "transactions": ["pickup", "delivery"], "price": "$$", "location": {"address1": "3015 Geary Blvd", "address2": "", "address3": "", "city": "San Francisco", "zip_code": "94118", "country": "US", "state": "CA", "display_address": ["3015 Geary Blvd", "San Francisco, CA 94118"]}, "phone": "+14157029979", "display_phone": "(415) 702-9979", "distance": 2674.5286650701682}, {"id": "mVwZ0FOH4VaOMuX-DexUCw", "alias": "pinche-sushi-san-francisco-3", "name": "Pinche Sushi", "image_url": "https://s3-media3.fl.yelpcdn.com/bphoto/kEE5e8Lh-uyyHsrpwkmqCw/o.jpg", "is_closed": false, "url": "https://www.yelp.com/biz/pinche-sushi-san-francisco-3?adjust_creative=YxudJyndSed2kqfC9K7Xig&utm_campaign=yelp_api_v3&utm_medium=api_v3_business_search&utm_source=YxudJyndSed2kqfC9K7Xig", "review_count": 35, "categories": [{"alias": "sushi", "title": "Sushi Bars"}, {"alias": "poke", "title": "Poke"}, {"alias": "hawaiian", "title": "Hawaiian"}], "rating": 4.5, "coordinates": {"latitude": 37.76399, "longitude": -122.41781}, "transactions": [], "location": {"address1": "564 S Van Ness Ave", "address2": null, "address3": "", "city": "San Francisco", "zip_code": "94110", "country": "US", "state": "CA", "display_address": ["564 S Van Ness Ave", "San Francisco, CA 94110"]}, "phone": "+14159238482", "display_phone": "(415) 923-8482", "distance": 1670.5071160840453}, {"id": "TyGQGbz1H5ehDZdOId27Ug", "alias": "wabi-sabi-sf-san-francisco", "name": "Wabi-Sabi SF", "image_url": "https://s3-media4.fl.yelpcdn.com/bphoto/TMoLeIBHVSrizWET8K5uvQ/o.jpg", "is_closed": false, "url": "https://www.yelp.com/biz/wabi-sabi-sf-san-francisco?adjust_creative=YxudJyndSed2kqfC9K7Xig&utm_campaign=yelp_api_v3&utm_medium=api_v3_business_search&utm_source=YxudJyndSed2kqfC9K7Xig", "review_count": 170, "categories": [{"alias": "japanese", "title": "Japanese"}, {"alias": "sushi", "title": "Sushi Bars"}], "rating": 4.5, "coordinates": {"latitude": 37.78022, "longitude": -122.39582}, "transactions": ["pickup", "delivery"], "location": {"address1": "246 Ritch St", "address2": "Unit 101", "address3": "", "city": "San Francisco", "zip_code": "94107", "country": "US", "state": "CA", "display_address": ["246 Ritch St", "Unit 101", "San Francisco, CA 94107"]}, "phone": "+14154004172", "display_phone": "(415) 400-4172", "distance": 4168.321545364173}, {"id": "Jpxv-URBpIvcu0mE5B6S3g", "alias": "cafe-okawari-san-francisco", "name": "Cafe Okawari", "image_url": "https://s3-media4.fl.yelpcdn.com/bphoto/KLUzH1p9y8sFRrYeSB_LWg/o.jpg", "is_closed": false, "url": "https://www.yelp.com/biz/cafe-okawari-san-francisco?adjust_creative=YxudJyndSed2kqfC9K7Xig&utm_campaign=yelp_api_v3&utm_medium=api_v3_business_search&utm_source=YxudJyndSed2kqfC9K7Xig", "review_count": 319, "categories": [{"alias": "japanese", "title": "Japanese"}, {"alias": "cafes", "title": "Cafes"}], "rating": 4.5, "coordinates": {"latitude": 37.77826, "longitude": -122.39388}, "transactions": ["pickup", "delivery"], "price": "$$", "location": {"address1": "236 Townsend St", "address2": "", "address3": null, "city": "San Francisco", "zip_code": "94107", "country": "US", "state": "CA", "display_address": ["236 Townsend St", "San Francisco, CA 94107"]}, "phone": "+14158015927", "display_phone": "(415) 801-5927", "distance": 4203.1209835336695}, {"id": "sIQrmyQiydU2UkByK3IeBA", "alias": "handroll-project-san-francisco-2", "name": "Handroll Project", "image_url": "https://s3-media1.fl.yelpcdn.com/bphoto/6WYpXiHggXXK68gPt_el7Q/o.jpg", "is_closed": false, "url": "https://www.yelp.com/biz/handroll-project-san-francisco-2?adjust_creative=YxudJyndSed2kqfC9K7Xig&utm_campaign=yelp_api_v3&utm_medium=api_v3_business_search&utm_source=YxudJyndSed2kqfC9K7Xig", "review_count": 178, "categories": [{"alias": "japanese", "title": "Japanese"}], "rating": 4.0, "coordinates": {"latitude": 37.76167, "longitude": -122.42409}, "transactions": [], "price": "$$$$", "location": {"address1": "598 Guerrero St", "address2": "", "address3": null, "city": "San Francisco", "zip_code": "94110", "country": "US", "state": "CA", "display_address": ["598 Guerrero St", "San Francisco, CA 94110"]}, "phone": "", "display_phone": "", "distance": 1084.9875730726128}, {"id": "f6G4fFuwx_hQOMxvZPmqjw", "alias": "wayo-sushi-san-francisco", "name": "Wayo Sushi", "image_url": "https://s3-media4.fl.yelpcdn.com/bphoto/aTWigLVtybIU1Uqpngwldg/o.jpg", "is_closed": false, "url": "https://www.yelp.com/biz/wayo-sushi-san-francisco?adjust_creative=YxudJyndSed2kqfC9K7Xig&utm_campaign=yelp_api_v3&utm_medium=api_v3_business_search&utm_source=YxudJyndSed2kqfC9K7Xig", "review_count": 765, "categories": [{"alias": "sushi", "title": "Sushi Bars"}, {"alias": "japanese", "title": "Japanese"}], "rating": 4.0, "coordinates": {"latitude": 37.788708, "longitude": -122.422174}, "transactions": ["delivery"], "price": "$$", "location": {"address1": "1407 Van Ness Ave", "address2": "", "address3": "", "city": "San Francisco", "zip_code": "94109", "country": "US", "state": "CA", "display_address": ["1407 Van Ness Ave", "San Francisco, CA 94109"]}, "phone": "+14155619598", "display_phone": "(415) 561-9598", "distance": 3336.9535510162386}, {"id": "CYttYTEiQuhSfo3SEh79fA", "alias": "shizen-vegan-sushi-bar-and-izakaya-san-francisco", "name": "Shizen Vegan Sushi Bar & Izakaya", "image_url": "https://s3-media4.fl.yelpcdn.com/bphoto/-1BWnyjrsDmTmXH_3wZl_w/o.jpg", "is_closed": false, "url": "https://www.yelp.com/biz/shizen-vegan-sushi-bar-and-izakaya-san-francisco?adjust_creative=YxudJyndSed2kqfC9K7Xig&utm_campaign=yelp_api_v3&utm_medium=api_v3_business_search&utm_source=YxudJyndSed2kqfC9K7Xig", "review_count": 2292, "categories": [{"alias": "sushi", "title": "Sushi Bars"}, {"alias": "vegan", "title": "Vegan"}, {"alias": "izakaya", "title": "Izakaya"}], "rating": 4.5, "coordinates": {"latitude": 37.7683096, "longitude": -122.4216669}, "transactions": ["restaurant_reservation"], "price": "$$$", "location": {"address1": "370 14th St", "address2": "", "address3": "", "city": "San Francisco", "zip_code": "94103", "country": "US", "state": "CA", "display_address": ["370 14th St", "San Francisco, CA 94103"]}, "phone": "+14156785767", "display_phone": "(415) 678-5767", "distance": 1541.4148356059607}, {"id": "Bq3SoZp6gsdKcCVU7WTOVA", "alias": "harajuku-sushi-san-francisco", "name": "Harajuku Sushi", "image_url": "https://s3-media4.fl.yelpcdn.com/bphoto/T56zOSoaxRBn918167VeOQ/o.jpg", "is_closed": false, "url": "https://www.yelp.com/biz/harajuku-sushi-san-francisco?adjust_creative=YxudJyndSed2kqfC9K7Xig&utm_campaign=yelp_api_v3&utm_medium=api_v3_business_search&utm_source=YxudJyndSed2kqfC9K7Xig", "review_count": 37, "categories": [{"alias": "sushi", "title": "Sushi Bars"}, {"alias": "izakaya", "title": "Izakaya"}, {"alias": "ramen", "title": "Ramen"}], "rating": 4.0, "coordinates": {"latitude": 37.78252, "longitude": -122.478777766228}, "transactions": ["pickup", "delivery"], "price": "$$", "location": {"address1": "1812 Clement St", "address2": "", "address3": null, "city": "San Francisco", "zip_code": "94121", "country": "US", "state": "CA", "display_address": ["1812 Clement St", "San Francisco, CA 94121"]}, "phone": "+14153872441", "display_phone": "(415) 387-2441", "distance": 4429.769594861603}, {"id": "VGb0wBUFj7sBwJdru345qg", "alias": "tenroku-sushi-san-francisco", "name": "Tenroku Sushi", "image_url": "https://s3-media2.fl.yelpcdn.com/bphoto/vkI2fL4eImjVcdd-lIJoUA/o.jpg", "is_closed": false, "url": "https://www.yelp.com/biz/tenroku-sushi-san-francisco?adjust_creative=YxudJyndSed2kqfC9K7Xig&utm_campaign=yelp_api_v3&utm_medium=api_v3_business_search&utm_source=YxudJyndSed2kqfC9K7Xig", "review_count": 528, "categories": [{"alias": "conveyorsushi", "title": "Conveyor Belt Sushi"}], "rating": 3.5, "coordinates": {"latitude": 37.78495206994753, "longitude": -122.43205872541012}, "transactions": ["pickup", "delivery"], "price": "$$", "location": {"address1": "1825 Post St", "address2": "Ste 215", "address3": "", "city": "San Francisco", "zip_code": "94115", "country": "US", "state": "CA", "display_address": ["1825 Post St", "Ste 215", "San Francisco, CA 94115"]}, "phone": "+14156731328", "display_phone": "(415) 673-1328", "distance": 2702.2030361406887}, {"id": "HHtpR0RslupSQ99GIIwW5A", "alias": "marufuku-ramen-san-francisco-5", "name": "Marufuku Ramen", "image_url": "https://s3-media4.fl.yelpcdn.com/bphoto/ouK2VmW0SrI70jsJpTxJhw/o.jpg", "is_closed": false, "url": "https://www.yelp.com/biz/marufuku-ramen-san-francisco-5?adjust_creative=YxudJyndSed2kqfC9K7Xig&utm_campaign=yelp_api_v3&utm_medium=api_v3_business_search&utm_source=YxudJyndSed2kqfC9K7Xig", "review_count": 4619, "categories": [{"alias": "ramen", "title": "Ramen"}], "rating": 4.5, "coordinates": {"latitude": 37.785014, "longitude": -122.431842}, "transactions": ["pickup", "delivery"], "price": "$$", "location": {"address1": "1581 Webster St", "address2": "Ste 235", "address3": null, "city": "San Francisco", "zip_code": "94115", "country": "US", "state": "CA", "display_address": ["1581 Webster St", "Ste 235", "San Francisco, CA 94115"]}, "phone": "+14158729786", "display_phone": "(415) 872-9786", "distance": 2717.1759329403035}, {"id": "dU04BKGhaB19ipLoKM7tRw", "alias": "shokudou-san-francisco-5", "name": "Shokudou", "image_url": "https://s3-media1.fl.yelpcdn.com/bphoto/xe7iOX14-CRXfgmMjgTtJw/o.jpg", "is_closed": false, "url": "https://www.yelp.com/biz/shokudou-san-francisco-5?adjust_creative=YxudJyndSed2kqfC9K7Xig&utm_campaign=yelp_api_v3&utm_medium=api_v3_business_search&utm_source=YxudJyndSed2kqfC9K7Xig", "review_count": 82, "categories": [{"alias": "izakaya", "title": "Izakaya"}], "rating": 4.5, "coordinates": {"latitude": 37.73893929400767, "longitude": -122.413161}, "transactions": ["pickup", "delivery"], "location": {"address1": "1000 Cortland Ave", "address2": null, "address3": "", "city": "San Francisco", "zip_code": "94110", "country": "US", "state": "CA", "display_address": ["1000 Cortland Ave", "San Francisco, CA 94110"]}, "phone": "+14158006883", "display_phone": "(415) 800-6883", "distance": 3186.5651800625633}, {"id": "4jXML1vz29FYYUeoPJIs6A", "alias": "fujiyama-ya-japanese-restaurant-san-francisco", "name": "Fujiyama-Ya Japanese Restaurant", "image_url": "https://s3-media3.fl.yelpcdn.com/bphoto/NkXyiUhDNQ26CasoTfzXIA/o.jpg", "is_closed": false, "url": "https://www.yelp.com/biz/fujiyama-ya-japanese-restaurant-san-francisco?adjust_creative=YxudJyndSed2kqfC9K7Xig&utm_campaign=yelp_api_v3&utm_medium=api_v3_business_search&utm_source=YxudJyndSed2kqfC9K7Xig", "review_count": 629, "categories": [{"alias": "japanese", "title": "Japanese"}, {"alias": "sushi", "title": "Sushi Bars"}], "rating": 4.0, "coordinates": {"latitude": 37.75444, "longitude": -122.47711}, "transactions": ["delivery"], "price": "$$", "location": {"address1": "1234 Noriega St", "address2": "", "address3": "", "city": "San Francisco", "zip_code": "94122", "country": "US", "state": "CA", "display_address": ["1234 Noriega St", "San Francisco, CA 94122"]}, "phone": "+14156651772", "display_phone": "(415) 665-1772", "distance": 3649.735666730695}, {"id": "neFTmvR2d49KwFD3Bni8-Q", "alias": "house-of-sushi-san-francisco", "name": "House of Sushi", "image_url": "https://s3-media2.fl.yelpcdn.com/bphoto/ePhdXgULndnPDA4UvDKEZA/o.jpg", "is_closed": false, "url": "https://www.yelp.com/biz/house-of-sushi-san-francisco?adjust_creative=YxudJyndSed2kqfC9K7Xig&utm_campaign=yelp_api_v3&utm_medium=api_v3_business_search&utm_source=YxudJyndSed2kqfC9K7Xig", "review_count": 256, "categories": [{"alias": "sushi", "title": "Sushi Bars"}], "rating": 3.5, "coordinates": {"latitude": 37.79663, "longitude": -122.4222}, "transactions": ["pickup", "delivery"], "price": "$$", "location": {"address1": "2157 Polk St", "address2": "", "address3": "", "city": "San Francisco", "zip_code": "94109", "country": "US", "state": "CA", "display_address": ["2157 Polk St", "San Francisco, CA 94109"]}, "phone": "+14154411797", "display_phone": "(415) 441-1797", "distance": 4173.848688331805}, {"id": "kN0TocgPKCGv1m44dmz37A", "alias": "amami-san-sushi-south-san-francisco-2", "name": "Amami San Sushi", "image_url": "https://s3-media3.fl.yelpcdn.com/bphoto/c3_YfTQj1bqtrptoh-fApA/o.jpg", "is_closed": false, "url": "https://www.yelp.com/biz/amami-san-sushi-south-san-francisco-2?adjust_creative=YxudJyndSed2kqfC9K7Xig&utm_campaign=yelp_api_v3&utm_medium=api_v3_business_search&utm_source=YxudJyndSed2kqfC9K7Xig", "review_count": 859, "categories": [{"alias": "sushi", "title": "Sushi Bars"}, {"alias": "japanese", "title": "Japanese"}], "rating": 4.0, "coordinates": {"latitude": 37.6555256545544, "longitude": -122.409950271249}, "transactions": ["pickup", "delivery"], "price": "$$$", "location": {"address1": "310 Linden Ave", "address2": null, "address3": "", "city": "South San Francisco", "zip_code": "94080", "country": "US", "state": "CA", "display_address": ["310 Linden Ave", "South San Francisco, CA 94080"]}, "phone": "+16508731084", "display_phone": "(650) 873-1084", "distance": 11943.099759580147}, {"id": "Wsf3kSGsWAc5SkvM41A2eA", "alias": "umi-san-francisco", "name": "Umi", "image_url": "https://s3-media1.fl.yelpcdn.com/bphoto/D-IKky2olTNTipOYFZvajw/o.jpg", "is_closed": false, "url": "https://www.yelp.com/biz/umi-san-francisco?adjust_creative=YxudJyndSed2kqfC9K7Xig&utm_campaign=yelp_api_v3&utm_medium=api_v3_business_search&utm_source=YxudJyndSed2kqfC9K7Xig", "review_count": 627, "categories": [{"alias": "japanese", "title": "Japanese"}, {"alias": "sushi", "title": "Sushi Bars"}], "rating": 4.0, "coordinates": {"latitude": 37.7627274, "longitude": -122.3961661}, "transactions": ["delivery"], "price": "$$", "location": {"address1": "1328 18th St", "address2": "", "address3": "", "city": "San Francisco", "zip_code": "94107", "country": "US", "state": "CA", "display_address": ["1328 18th St", "San Francisco, CA 94107"]}, "phone": "+14153551328", "display_phone": "(415) 355-1328", "distance": 3548.2689246817813}, {"id": "rMuLW1qVB-deU5NStYerWA", "alias": "sushirrito-san-francisco-55", "name": "Sushirrito", "image_url": "https://s3-media3.fl.yelpcdn.com/bphoto/8BHpDoqgqMtZCwx6uFtrVw/o.jpg", "is_closed": false, "url": "https://www.yelp.com/biz/sushirrito-san-francisco-55?adjust_creative=YxudJyndSed2kqfC9K7Xig&utm_campaign=yelp_api_v3&utm_medium=api_v3_business_search&utm_source=YxudJyndSed2kqfC9K7Xig", "review_count": 1629, "categories": [{"alias": "japanese", "title": "Japanese"}, {"alias": "sushi", "title": "Sushi Bars"}, {"alias": "asianfusion", "title": "Asian Fusion"}], "rating": 4.0, "coordinates": {"latitude": 37.79019, "longitude": -122.40366}, "transactions": ["pickup", "delivery"], "price": "$$", "location": {"address1": "226 Kearny St", "address2": "", "address3": "", "city": "San Francisco", "zip_code": "94108", "country": "US", "state": "CA", "display_address": ["226 Kearny St", "San Francisco, CA 94108"]}, "phone": "+14155449868", "display_phone": "(415) 544-9868", "distance": 4346.729466917752}, {"id": "_CY0LgS5OOBhImGNeWwHWg", "alias": "robin-san-francisco", "name": "Robin", "image_url": "https://s3-media1.fl.yelpcdn.com/bphoto/7l-xpL2vtnp1z3y7WTjtYg/o.jpg", "is_closed": false, "url": "https://www.yelp.com/biz/robin-san-francisco?adjust_creative=YxudJyndSed2kqfC9K7Xig&utm_campaign=yelp_api_v3&utm_medium=api_v3_business_search&utm_source=YxudJyndSed2kqfC9K7Xig", "review_count": 519, "categories": [{"alias": "sushi", "title": "Sushi Bars"}, {"alias": "japanese", "title": "Japanese"}], "rating": 4.0, "coordinates": {"latitude": 37.779191, "longitude": -122.423323604965}, "transactions": ["delivery"], "price": "$$$$", "location": {"address1": "620 Gough St", "address2": "", "address3": null, "city": "San Francisco", "zip_code": "94102", "country": "US", "state": "CA", "display_address": ["620 Gough St", "San Francisco, CA 94102"]}, "phone": "+14154487372", "display_phone": "(415) 448-7372", "distance": 2338.264188201915}, {"id": "NBdAqG4Kdqy0BrCrWa0xUg", "alias": "tsunami-panhandle-san-francisco-2", "name": "Tsunami Panhandle", "image_url": "https://s3-media2.fl.yelpcdn.com/bphoto/fRj6P-FjdbNc2W0yL6CT5g/o.jpg", "is_closed": false, "url": "https://www.yelp.com/biz/tsunami-panhandle-san-francisco-2?adjust_creative=YxudJyndSed2kqfC9K7Xig&utm_campaign=yelp_api_v3&utm_medium=api_v3_business_search&utm_source=YxudJyndSed2kqfC9K7Xig", "review_count": 940, "categories": [{"alias": "sushi", "title": "Sushi Bars"}, {"alias": "japanese", "title": "Japanese"}, {"alias": "bars", "title": "Bars"}], "rating": 3.5, "coordinates": {"latitude": 37.7769872, "longitude": -122.4385184}, "transactions": ["delivery"], "price": "$$$", "location": {"address1": "1306 Fulton St", "address2": "", "address3": "", "city": "San Francisco", "zip_code": "94117", "country": "US", "state": "CA", "display_address": ["1306 Fulton St", "San Francisco, CA 94117"]}, "phone": "+14155677664", "display_phone": "(415) 567-7664", "distance": 1798.1213778609413}, {"id": "d40PbnRah7AWH_dclw1h_Q", "alias": "rintaro-san-francisco-4", "name": "Rintaro", "image_url": "https://s3-media1.fl.yelpcdn.com/bphoto/AdTYCXClG4msU95Q2Qx-NQ/o.jpg", "is_closed": false, "url": "https://www.yelp.com/biz/rintaro-san-francisco-4?adjust_creative=YxudJyndSed2kqfC9K7Xig&utm_campaign=yelp_api_v3&utm_medium=api_v3_business_search&utm_source=YxudJyndSed2kqfC9K7Xig", "review_count": 840, "categories": [{"alias": "izakaya", "title": "Izakaya"}], "rating": 4.0, "coordinates": {"latitude": 37.76881, "longitude": -122.41511}, "transactions": ["delivery"], "price": "$$$", "location": {"address1": "82 14th St", "address2": "", "address3": "", "city": "San Francisco", "zip_code": "94103", "country": "US", "state": "CA", "display_address": ["82 14th St", "San Francisco, CA 94103"]}, "phone": "+14155897022", "display_phone": "(415) 589-7022", "distance": 2071.4305270365676}, {"id": "llbXUj5XWz8XjLzhtpuWRA", "alias": "tazaki-sushi-san-francisco", "name": "Tazaki Sushi", "image_url": "https://s3-media1.fl.yelpcdn.com/bphoto/WAdCx4onCXjVowPItpddbw/o.jpg", "is_closed": false, "url": "https://www.yelp.com/biz/tazaki-sushi-san-francisco?adjust_creative=YxudJyndSed2kqfC9K7Xig&utm_campaign=yelp_api_v3&utm_medium=api_v3_business_search&utm_source=YxudJyndSed2kqfC9K7Xig", "review_count": 618, "categories": [{"alias": "sushi", "title": "Sushi Bars"}, {"alias": "japanese", "title": "Japanese"}], "rating": 4.0, "coordinates": {"latitude": 37.76087123214388, "longitude": -122.4988951}, "transactions": ["pickup", "delivery"], "price": "$$", "location": {"address1": "3420 Judah St", "address2": null, "address3": "", "city": "San Francisco", "zip_code": "94122", "country": "US", "state": "CA", "display_address": ["3420 Judah St", "San Francisco, CA 94122"]}, "phone": "+14155666860", "display_phone": "(415) 566-6860", "distance": 5489.653064033728}, {"id": "V-OBRVrit2nwMD4Bgktt1w", "alias": "sushi-hakko-san-francisco", "name": "Sushi Hakko", "image_url": "https://s3-media4.fl.yelpcdn.com/bphoto/bJxQZZWwsGa6gVLLZ-M56g/o.jpg", "is_closed": false, "url": "https://www.yelp.com/biz/sushi-hakko-san-francisco?adjust_creative=YxudJyndSed2kqfC9K7Xig&utm_campaign=yelp_api_v3&utm_medium=api_v3_business_search&utm_source=YxudJyndSed2kqfC9K7Xig", "review_count": 109, "categories": [{"alias": "sushi", "title": "Sushi Bars"}, {"alias": "japanese", "title": "Japanese"}], "rating": 4.5, "coordinates": {"latitude": 37.79734, "longitude": -122.43515}, "transactions": [], "price": "$$$$", "location": {"address1": "2184 Union St", "address2": null, "address3": "", "city": "San Francisco", "zip_code": "94123", "country": "US", "state": "CA", "display_address": ["2184 Union St", "San Francisco, CA 94123"]}, "phone": "+14158142886", "display_phone": "(415) 814-2886", "distance": 4054.694950226938}, {"id": "_JB5Bv5h7txJ7rcqcQJ6fw", "alias": "kitaro-japanese-restaurant-san-francisco", "name": "Kitaro Japanese Restaurant", "image_url": "https://s3-media1.fl.yelpcdn.com/bphoto/VyVwZwB6_Ctuu2YEdQw6pw/o.jpg", "is_closed": false, "url": "https://www.yelp.com/biz/kitaro-japanese-restaurant-san-francisco?adjust_creative=YxudJyndSed2kqfC9K7Xig&utm_campaign=yelp_api_v3&utm_medium=api_v3_business_search&utm_source=YxudJyndSed2kqfC9K7Xig", "review_count": 1149, "categories": [{"alias": "japanese", "title": "Japanese"}, {"alias": "sushi", "title": "Sushi Bars"}], "rating": 3.5, "coordinates": {"latitude": 37.77995, "longitude": -122.48087}, "transactions": ["pickup", "delivery"], "price": "$$", "location": {"address1": "5723 Geary Blvd", "address2": "", "address3": "", "city": "San Francisco", "zip_code": "94121", "country": "US", "state": "CA", "display_address": ["5723 Geary Blvd", "San Francisco, CA 94121"]}, "phone": "+14153862777", "display_phone": "(415) 386-2777", "distance": 4448.939344425898}, {"id": "8oVK6iM82dBTFLb10LYkBg", "alias": "doma-san-francisco-2", "name": "Doma", "image_url": "https://s3-media3.fl.yelpcdn.com/bphoto/FkevwCF8r48y2WhApGH_zg/o.jpg", "is_closed": false, "url": "https://www.yelp.com/biz/doma-san-francisco-2?adjust_creative=YxudJyndSed2kqfC9K7Xig&utm_campaign=yelp_api_v3&utm_medium=api_v3_business_search&utm_source=YxudJyndSed2kqfC9K7Xig", "review_count": 156, "categories": [{"alias": "japanese", "title": "Japanese"}, {"alias": "sushi", "title": "Sushi Bars"}], "rating": 4.5, "coordinates": {"latitude": 37.747497, "longitude": -122.410663}, "transactions": ["delivery"], "price": "$$$$", "location": {"address1": "433 Precita Ave", "address2": "", "address3": null, "city": "San Francisco", "zip_code": "94110", "country": "US", "state": "CA", "display_address": ["433 Precita Ave", "San Francisco, CA 94110"]}, "phone": "+14156484417", "display_phone": "(415) 648-4417", "distance": 2712.827310954169}, {"id": "OVbF_IMHhBDi62Njm7zs9w", "alias": "sushi-suki-san-francisco", "name": "Sushi Suki", "image_url": "https://s3-media4.fl.yelpcdn.com/bphoto/7kYAy6V8LF0SiQNEDqIgbw/o.jpg", "is_closed": false, "url": "https://www.yelp.com/biz/sushi-suki-san-francisco?adjust_creative=YxudJyndSed2kqfC9K7Xig&utm_campaign=yelp_api_v3&utm_medium=api_v3_business_search&utm_source=YxudJyndSed2kqfC9K7Xig", "review_count": 184, "categories": [{"alias": "sushi", "title": "Sushi Bars"}, {"alias": "japanese", "title": "Japanese"}], "rating": 3.5, "coordinates": {"latitude": 37.7374, "longitude": -122.47019}, "transactions": ["pickup", "delivery"], "price": "$$", "location": {"address1": "360 W Portal Ave", "address2": null, "address3": "", "city": "San Francisco", "zip_code": "94127", "country": "US", "state": "CA", "display_address": ["360 W Portal Ave", "San Francisco, CA 94127"]}, "phone": "+14152425667", "display_phone": "(415) 242-5667", "distance": 3953.9209698515115}, {"id": "BP0D8y1iCA7xq21zds4xfg", "alias": "izakaya-links-sushi-bar-san-francisco-3", "name": "Izakaya links sushi bar ", "image_url": "https://s3-media3.fl.yelpcdn.com/bphoto/SKmLlo_7_nA2oZxTIWJCzA/o.jpg", "is_closed": false, "url": "https://www.yelp.com/biz/izakaya-links-sushi-bar-san-francisco-3?adjust_creative=YxudJyndSed2kqfC9K7Xig&utm_campaign=yelp_api_v3&utm_medium=api_v3_business_search&utm_source=YxudJyndSed2kqfC9K7Xig", "review_count": 131, "categories": [{"alias": "cocktailbars", "title": "Cocktail Bars"}, {"alias": "sushi", "title": "Sushi Bars"}, {"alias": "venues", "title": "Venues & Event Spaces"}], "rating": 4.5, "coordinates": {"latitude": 37.7814, "longitude": -122.49293}, "transactions": ["restaurant_reservation", "pickup", "delivery"], "price": "$$", "location": {"address1": "3129 Clement St", "address2": "", "address3": null, "city": "San Francisco", "zip_code": "94121", "country": "US", "state": "CA", "display_address": ["3129 Clement St", "San Francisco, CA 94121"]}, "phone": "+14157029117", "display_phone": "(415) 702-9117", "distance": 5467.115675245896}, {"id": "ZHRYhHqJTHGBoAb4XshE8Q", "alias": "sushi-ran-sausalito", "name": "Sushi Ran", "image_url": "https://s3-media4.fl.yelpcdn.com/bphoto/HF49wxcB3_EoL7XlwBlqfg/o.jpg", "is_closed": false, "url": "https://www.yelp.com/biz/sushi-ran-sausalito?adjust_creative=YxudJyndSed2kqfC9K7Xig&utm_campaign=yelp_api_v3&utm_medium=api_v3_business_search&utm_source=YxudJyndSed2kqfC9K7Xig", "review_count": 1777, "categories": [{"alias": "sushi", "title": "Sushi Bars"}, {"alias": "japanese", "title": "Japanese"}], "rating": 4.0, "coordinates": {"latitude": 37.8585, "longitude": -122.48595}, "transactions": ["delivery"], "price": "$$$", "location": {"address1": "107 Caledonia St", "address2": "", "address3": "", "city": "Sausalito", "zip_code": "94965", "country": "US", "state": "CA", "display_address": ["107 Caledonia St", "Sausalito, CA 94965"]}, "phone": "+14153323620", "display_phone": "(415) 332-3620", "distance": 11706.531473919309}, {"id": "kd4Xqgpkkv5vftm2ayCWrA", "alias": "ariake-san-francisco-2", "name": "Ariake", "image_url": "https://s3-media3.fl.yelpcdn.com/bphoto/Jd-4BpaVZIQY2vYkp5LMEQ/o.jpg", "is_closed": false, "url": "https://www.yelp.com/biz/ariake-san-francisco-2?adjust_creative=YxudJyndSed2kqfC9K7Xig&utm_campaign=yelp_api_v3&utm_medium=api_v3_business_search&utm_source=YxudJyndSed2kqfC9K7Xig", "review_count": 454, "categories": [{"alias": "japanese", "title": "Japanese"}, {"alias": "sushi", "title": "Sushi Bars"}], "rating": 4.0, "coordinates": {"latitude": 37.7804569, "longitude": -122.4735467}, "transactions": ["delivery"], "price": "$$", "location": {"address1": "5041 Geary Blvd", "address2": "", "address3": "", "city": "San Francisco", "zip_code": "94118", "country": "US", "state": "CA", "display_address": ["5041 Geary Blvd", "San Francisco, CA 94118"]}, "phone": "+14152216210", "display_phone": "(415) 221-6210", "distance": 3919.53780833365}, {"id": "3Reec-_JZaemqsI0MlW_SQ", "alias": "wago-sushi-san-francisco", "name": "Wago sushi", "image_url": "https://s3-media3.fl.yelpcdn.com/bphoto/WaYRcSSv1YoQVceg8XlzHQ/o.jpg", "is_closed": false, "url": "https://www.yelp.com/biz/wago-sushi-san-francisco?adjust_creative=YxudJyndSed2kqfC9K7Xig&utm_campaign=yelp_api_v3&utm_medium=api_v3_business_search&utm_source=YxudJyndSed2kqfC9K7Xig", "review_count": 200, "categories": [{"alias": "japanese", "title": "Japanese"}, {"alias": "sushi", "title": "Sushi Bars"}], "rating": 4.0, "coordinates": {"latitude": 37.79992, "longitude": -122.44225}, "transactions": ["pickup", "delivery"], "price": "$$", "location": {"address1": "2365 Chestnut St", "address2": null, "address3": "", "city": "San Francisco", "zip_code": "94123", "country": "US", "state": "CA", "display_address": ["2365 Chestnut St", "San Francisco, CA 94123"]}, "phone": "+14153458263", "display_phone": "(415) 345-8263", "distance": 4360.809839289162}, {"id": "rd0dA9Z61FGmalk6qZm7JQ", "alias": "tanuki-restaurant-san-francisco", "name": "Tanuki Restaurant", "image_url": "https://s3-media2.fl.yelpcdn.com/bphoto/vqHfowdyxHer2nDk64P3gA/o.jpg", "is_closed": false, "url": "https://www.yelp.com/biz/tanuki-restaurant-san-francisco?adjust_creative=YxudJyndSed2kqfC9K7Xig&utm_campaign=yelp_api_v3&utm_medium=api_v3_business_search&utm_source=YxudJyndSed2kqfC9K7Xig", "review_count": 407, "categories": [{"alias": "sushi", "title": "Sushi Bars"}, {"alias": "japanese", "title": "Japanese"}, {"alias": "salad", "title": "Salad"}], "rating": 4.0, "coordinates": {"latitude": 37.78454, "longitude": -122.46486}, "transactions": ["pickup", "delivery"], "price": "$$", "location": {"address1": "4419 California St", "address2": "", "address3": "", "city": "San Francisco", "zip_code": "94118", "country": "US", "state": "CA", "display_address": ["4419 California St", "San Francisco, CA 94118"]}, "phone": "+14157525740", "display_phone": "(415) 752-5740", "distance": 3633.3371332887705}, {"id": "-Lw7AT_wBUMbeTpAf21aPw", "alias": "machiya-san-francisco-2", "name": "Machiya", "image_url": "https://s3-media2.fl.yelpcdn.com/bphoto/Qgu1ze2KjFNu72SbarJQSg/o.jpg", "is_closed": false, "url": "https://www.yelp.com/biz/machiya-san-francisco-2?adjust_creative=YxudJyndSed2kqfC9K7Xig&utm_campaign=yelp_api_v3&utm_medium=api_v3_business_search&utm_source=YxudJyndSed2kqfC9K7Xig", "review_count": 82, "categories": [{"alias": "sushi", "title": "Sushi Bars"}, {"alias": "izakaya", "title": "Izakaya"}], "rating": 4.0, "coordinates": {"latitude": 37.77857, "longitude": -122.39714}, "transactions": ["restaurant_reservation", "pickup", "delivery"], "location": {"address1": "570 4th St", "address2": null, "address3": "", "city": "San Francisco", "zip_code": "94107", "country": "US", "state": "CA", "display_address": ["570 4th St", "San Francisco, CA 94107"]}, "phone": "+14153856167", "display_phone": "(415) 385-6167", "distance": 3969.0108857560576}, {"id": "_GpFQcVns2ro364TBu7-VA", "alias": "sakesan-sushi-and-robata-san-francisco-6", "name": "Sakesan Sushi & Robata", "image_url": "https://s3-media4.fl.yelpcdn.com/bphoto/C_wHgECuULE4CUcMgMiLCw/o.jpg", "is_closed": false, "url": "https://www.yelp.com/biz/sakesan-sushi-and-robata-san-francisco-6?adjust_creative=YxudJyndSed2kqfC9K7Xig&utm_campaign=yelp_api_v3&utm_medium=api_v3_business_search&utm_source=YxudJyndSed2kqfC9K7Xig", "review_count": 506, "categories": [{"alias": "japanese", "title": "Japanese"}, {"alias": "sushi", "title": "Sushi Bars"}], "rating": 4.0, "coordinates": {"latitude": 37.7243585192671, "longitude": -122.457495672167}, "transactions": ["restaurant_reservation", "pickup", "delivery"], "price": "$$", "location": {"address1": "1400 Ocean Ave", "address2": "", "address3": null, "city": "San Francisco", "zip_code": "94112", "country": "US", "state": "CA", "display_address": ["1400 Ocean Ave", "San Francisco, CA 94112"]}, "phone": "+14153477898", "display_phone": "(415) 347-7898", "distance": 4464.82084179}, {"id": "EYsctaXs-YUwsso88MDXRA", "alias": "wasabi-bistro-san-francisco-4", "name": "Wasabi Bistro", "image_url": "https://s3-media3.fl.yelpcdn.com/bphoto/BCRHPhcrUq7UQYJStN9l8Q/o.jpg", "is_closed": false, "url": "https://www.yelp.com/biz/wasabi-bistro-san-francisco-4?adjust_creative=YxudJyndSed2kqfC9K7Xig&utm_campaign=yelp_api_v3&utm_medium=api_v3_business_search&utm_source=YxudJyndSed2kqfC9K7Xig", "review_count": 48, "categories": [{"alias": "hotpot", "title": "Hot Pot"}, {"alias": "buffets", "title": "Buffets"}], "rating": 4.0, "coordinates": {"latitude": 37.78135, "longitude": -122.46386}, "transactions": ["pickup", "delivery"], "price": "$$", "location": {"address1": "4134 Geary Blvd", "address2": "", "address3": null, "city": "San Francisco", "zip_code": "94118", "country": "US", "state": "CA", "display_address": ["4134 Geary Blvd", "San Francisco, CA 94118"]}, "phone": "+14157026106", "display_phone": "(415) 702-6106", "distance": 3306.065940624436}, {"id": "JfYD1RLWIocNtgsOLU5NgQ", "alias": "the-grubbies-san-francisco-3", "name": "The Grubbies", "image_url": "https://s3-media3.fl.yelpcdn.com/bphoto/aKnRnARFCN4bUMBjaKwbuw/o.jpg", "is_closed": false, "url": "https://www.yelp.com/biz/the-grubbies-san-francisco-3?adjust_creative=YxudJyndSed2kqfC9K7Xig&utm_campaign=yelp_api_v3&utm_medium=api_v3_business_search&utm_source=YxudJyndSed2kqfC9K7Xig", "review_count": 152, "categories": [{"alias": "japanese", "title": "Japanese"}], "rating": 4.0, "coordinates": {"latitude": 37.7878039, "longitude": -122.3993022}, "transactions": ["pickup", "delivery"], "price": "$$", "location": {"address1": "123 2nd St", "address2": "", "address3": null, "city": "San Francisco", "zip_code": "94105", "country": "US", "state": "CA", "display_address": ["123 2nd St", "San Francisco, CA 94105"]}, "phone": "+14157570887", "display_phone": "(415) 757-0887", "distance": 4429.552851042594}, {"id": "shGrK3zfITUUY4SsqKk_Bg", "alias": "sakana-sushi-and-grill-san-francisco", "name": "Sakana Sushi & Grill", "image_url": "https://s3-media2.fl.yelpcdn.com/bphoto/4wsExeagnLj0t899zdxmNQ/o.jpg", "is_closed": false, "url": "https://www.yelp.com/biz/sakana-sushi-and-grill-san-francisco?adjust_creative=YxudJyndSed2kqfC9K7Xig&utm_campaign=yelp_api_v3&utm_medium=api_v3_business_search&utm_source=YxudJyndSed2kqfC9K7Xig", "review_count": 680, "categories": [{"alias": "sushi", "title": "Sushi Bars"}, {"alias": "japanese", "title": "Japanese"}], "rating": 4.0, "coordinates": {"latitude": 37.7877961099148, "longitude": -122.411896884441}, "transactions": ["pickup", "delivery"], "price": "$$", "location": {"address1": "605 Post St", "address2": "", "address3": "", "city": "San Francisco", "zip_code": "94109", "country": "US", "state": "CA", "display_address": ["605 Post St", "San Francisco, CA 94109"]}, "phone": "+14157757644", "display_phone": "(415) 775-7644", "distance": 3678.920973794136}, {"id": "qtH79N3gbcOe4ToQWBckuQ", "alias": "hamano-sushi-san-francisco", "name": "Hamano Sushi", "image_url": "https://s3-media4.fl.yelpcdn.com/bphoto/Tznruwvei2DYV3wVAy2_AQ/o.jpg", "is_closed": false, "url": "https://www.yelp.com/biz/hamano-sushi-san-francisco?adjust_creative=YxudJyndSed2kqfC9K7Xig&utm_campaign=yelp_api_v3&utm_medium=api_v3_business_search&utm_source=YxudJyndSed2kqfC9K7Xig", "review_count": 449, "categories": [{"alias": "sushi", "title": "Sushi Bars"}, {"alias": "japanese", "title": "Japanese"}, {"alias": "seafood", "title": "Seafood"}], "rating": 3.5, "coordinates": {"latitude": 37.75077, "longitude": -122.43431}, "transactions": ["pickup"], "price": "$$", "location": {"address1": "1332 Castro St", "address2": "", "address3": "", "city": "San Francisco", "zip_code": "94114", "country": "US", "state": "CA", "display_address": ["1332 Castro St", "San Francisco, CA 94114"]}, "phone": "+14158260825", "display_phone": "(415) 826-0825", "distance": 1143.0098409604125}, {"id": "_TVBDjUzNKi4HEmUT4yPGA", "alias": "kaiy\u014d-cow-hollow-san-francisco", "name": "KAIY\u014c Cow Hollow", "image_url": "https://s3-media1.fl.yelpcdn.com/bphoto/Lkyv0Z48ip8WpBz2DdcXqA/o.jpg", "is_closed": false, "url": "https://www.yelp.com/biz/kaiy%C5%8D-cow-hollow-san-francisco?adjust_creative=YxudJyndSed2kqfC9K7Xig&utm_campaign=yelp_api_v3&utm_medium=api_v3_business_search&utm_source=YxudJyndSed2kqfC9K7Xig", "review_count": 632, "categories": [{"alias": "japanese", "title": "Japanese"}, {"alias": "peruvian", "title": "Peruvian"}, {"alias": "cocktailbars", "title": "Cocktail Bars"}], "rating": 4.0, "coordinates": {"latitude": 37.79801, "longitude": -122.42967}, "transactions": ["delivery"], "location": {"address1": "1838 Union St", "address2": "", "address3": null, "city": "San Francisco", "zip_code": "94123", "country": "US", "state": "CA", "display_address": ["1838 Union St", "San Francisco, CA 94123"]}, "phone": "+14155254804", "display_phone": "(415) 525-4804", "distance": 4165.528826903431}, {"id": "yMnXs2PuF5mtHBLwQZb23A", "alias": "amami-sushi-bistro-san-bruno-4", "name": "Amami Sushi Bistro", "image_url": "https://s3-media4.fl.yelpcdn.com/bphoto/uxZjQqFlqUGlDIUHUgEkyA/o.jpg", "is_closed": false, "url": "https://www.yelp.com/biz/amami-sushi-bistro-san-bruno-4?adjust_creative=YxudJyndSed2kqfC9K7Xig&utm_campaign=yelp_api_v3&utm_medium=api_v3_business_search&utm_source=YxudJyndSed2kqfC9K7Xig", "review_count": 548, "categories": [{"alias": "sushi", "title": "Sushi Bars"}, {"alias": "japanese", "title": "Japanese"}, {"alias": "seafood", "title": "Seafood"}], "rating": 4.0, "coordinates": {"latitude": 37.62017, "longitude": -122.41025}, "transactions": ["pickup", "delivery"], "location": {"address1": "312 El Camino Real", "address2": "", "address3": null, "city": "San Bruno", "zip_code": "94066", "country": "US", "state": "CA", "display_address": ["312 El Camino Real", "San Bruno, CA 94066"]}, "phone": "+16508696088", "display_phone": "(650) 869-6088", "distance": 15817.2455310653}, {"id": "1DkuHn17_amndVrOrkiKpg", "alias": "godzila-sushi-san-francisco-2", "name": "Godzila Sushi", "image_url": "https://s3-media1.fl.yelpcdn.com/bphoto/yZPNTW9EXAWzKG6qOgrvpQ/o.jpg", "is_closed": false, "url": "https://www.yelp.com/biz/godzila-sushi-san-francisco-2?adjust_creative=YxudJyndSed2kqfC9K7Xig&utm_campaign=yelp_api_v3&utm_medium=api_v3_business_search&utm_source=YxudJyndSed2kqfC9K7Xig", "review_count": 517, "categories": [{"alias": "sushi", "title": "Sushi Bars"}, {"alias": "japanese", "title": "Japanese"}], "rating": 3.5, "coordinates": {"latitude": 37.7863329648972, "longitude": -122.440021187067}, "transactions": ["delivery"], "price": "$$", "location": {"address1": "1800 Divisadero St", "address2": "", "address3": "", "city": "San Francisco", "zip_code": "94115", "country": "US", "state": "CA", "display_address": ["1800 Divisadero St", "San Francisco, CA 94115"]}, "phone": "+14159311773", "display_phone": "(415) 931-1773", "distance": 2847.083746209747}, {"id": "olHsr-uo5BxaMhg9cva7mA", "alias": "sato-omakase-san-francisco", "name": "Sato Omakase", "image_url": "https://s3-media2.fl.yelpcdn.com/bphoto/Csj0bN10iNlxI3ubDRv2HQ/o.jpg", "is_closed": false, "url": "https://www.yelp.com/biz/sato-omakase-san-francisco?adjust_creative=YxudJyndSed2kqfC9K7Xig&utm_campaign=yelp_api_v3&utm_medium=api_v3_business_search&utm_source=YxudJyndSed2kqfC9K7Xig", "review_count": 66, "categories": [{"alias": "sushi", "title": "Sushi Bars"}], "rating": 5.0, "coordinates": {"latitude": 37.78704, "longitude": -122.42029}, "transactions": [], "price": "$$$$", "location": {"address1": "1122 Post St", "address2": null, "address3": "", "city": "San Francisco", "zip_code": "94109", "country": "US", "state": "CA", "display_address": ["1122 Post St", "San Francisco, CA 94109"]}, "phone": "+14158518830", "display_phone": "(415) 851-8830", "distance": 3227.885520133594}, {"id": "XqusjspR2LGsm33BBBJkmQ", "alias": "kufuya-japanese-restaurant-san-francisco", "name": "Kufuya Japanese Restaurant", "image_url": "https://s3-media1.fl.yelpcdn.com/bphoto/cZyd62H-KjhxNRT1_V3TMA/o.jpg", "is_closed": false, "url": "https://www.yelp.com/biz/kufuya-japanese-restaurant-san-francisco?adjust_creative=YxudJyndSed2kqfC9K7Xig&utm_campaign=yelp_api_v3&utm_medium=api_v3_business_search&utm_source=YxudJyndSed2kqfC9K7Xig", "review_count": 579, "categories": [{"alias": "japanese", "title": "Japanese"}, {"alias": "sushi", "title": "Sushi Bars"}], "rating": 4.0, "coordinates": {"latitude": 37.7794369, "longitude": -122.4944874}, "transactions": ["pickup"], "price": "$$", "location": {"address1": "7001 Geary Blvd", "address2": "", "address3": "", "city": "San Francisco", "zip_code": "94121", "country": "US", "state": "CA", "display_address": ["7001 Geary Blvd", "San Francisco, CA 94121"]}, "phone": "+14156688699", "display_phone": "(415) 668-8699", "distance": 5502.233833432008}, {"id": "G8gnLXjHU-c7rf5Oiksqwg", "alias": "yum-yum-sushi-house-san-francisco", "name": "Yum Yum Sushi House", "image_url": "https://s3-media3.fl.yelpcdn.com/bphoto/Wojqbpd7s0AhpZxVF8PESQ/o.jpg", "is_closed": false, "url": "https://www.yelp.com/biz/yum-yum-sushi-house-san-francisco?adjust_creative=YxudJyndSed2kqfC9K7Xig&utm_campaign=yelp_api_v3&utm_medium=api_v3_business_search&utm_source=YxudJyndSed2kqfC9K7Xig", "review_count": 178, "categories": [{"alias": "sushi", "title": "Sushi Bars"}], "rating": 3.5, "coordinates": {"latitude": 37.7632329661983, "longitude": -122.481109276414}, "transactions": ["pickup", "delivery"], "price": "$$", "location": {"address1": "2181 Irving St", "address2": "", "address3": null, "city": "San Francisco", "zip_code": "94122", "country": "US", "state": "CA", "display_address": ["2181 Irving St", "San Francisco, CA 94122"]}, "phone": "+16282562799", "display_phone": "(628) 256-2799", "distance": 3934.6452915046552}, {"id": "ofePwB_Ke6irmERkygEpsA", "alias": "kama-sushi-san-francisco-9", "name": "Kama Sushi", "image_url": "https://s3-media2.fl.yelpcdn.com/bphoto/sKmzyWROFaOvCR1pEydB1w/o.jpg", "is_closed": false, "url": "https://www.yelp.com/biz/kama-sushi-san-francisco-9?adjust_creative=YxudJyndSed2kqfC9K7Xig&utm_campaign=yelp_api_v3&utm_medium=api_v3_business_search&utm_source=YxudJyndSed2kqfC9K7Xig", "review_count": 305, "categories": [{"alias": "sushi", "title": "Sushi Bars"}, {"alias": "japanese", "title": "Japanese"}], "rating": 3.5, "coordinates": {"latitude": 37.7470551, "longitude": -122.4268117}, "transactions": ["pickup", "delivery"], "price": "$$", "location": {"address1": "1497 Church St", "address2": "", "address3": "", "city": "San Francisco", "zip_code": "94131", "country": "US", "state": "CA", "display_address": ["1497 Church St", "San Francisco, CA 94131"]}, "phone": "+14154005925", "display_phone": "(415) 400-5925", "distance": 1761.499633969542}, {"id": "0i6aG3_yCY0E4MLDSKKsYQ", "alias": "ikes-japanese-kitchen-san-francisco", "name": "Ike's Japanese Kitchen", "image_url": "https://s3-media3.fl.yelpcdn.com/bphoto/wbjaR0cXn4eNmNp3optGag/o.jpg", "is_closed": false, "url": "https://www.yelp.com/biz/ikes-japanese-kitchen-san-francisco?adjust_creative=YxudJyndSed2kqfC9K7Xig&utm_campaign=yelp_api_v3&utm_medium=api_v3_business_search&utm_source=YxudJyndSed2kqfC9K7Xig", "review_count": 214, "categories": [{"alias": "japanese", "title": "Japanese"}, {"alias": "tapasmallplates", "title": "Tapas/Small Plates"}, {"alias": "sushi", "title": "Sushi Bars"}], "rating": 4.5, "coordinates": {"latitude": 37.78307, "longitude": -122.42044}, "transactions": ["pickup", "delivery"], "price": "$$", "location": {"address1": "800 Van Ness Ave", "address2": "", "address3": null, "city": "San Francisco", "zip_code": "94109", "country": "US", "state": "CA", "display_address": ["800 Van Ness Ave", "San Francisco, CA 94109"]}, "phone": "+14157755800", "display_phone": "(415) 775-5800", "distance": 2831.295846212697}, {"id": "8ed5eduh4zdLGn_y4cCLWA", "alias": "you-see-sushi-san-francisco", "name": "You See Sushi", "image_url": "https://s3-media2.fl.yelpcdn.com/bphoto/iE4AD6OH2GeKPdQ1BsSP1g/o.jpg", "is_closed": false, "url": "https://www.yelp.com/biz/you-see-sushi-san-francisco?adjust_creative=YxudJyndSed2kqfC9K7Xig&utm_campaign=yelp_api_v3&utm_medium=api_v3_business_search&utm_source=YxudJyndSed2kqfC9K7Xig", "review_count": 333, "categories": [{"alias": "japanese", "title": "Japanese"}, {"alias": "sushi", "title": "Sushi Bars"}], "rating": 3.5, "coordinates": {"latitude": 37.76249, "longitude": -122.462642}, "transactions": ["pickup"], "price": "$$", "location": {"address1": "94 Judah St", "address2": "", "address3": "", "city": "San Francisco", "zip_code": "94122", "country": "US", "state": "CA", "display_address": ["94 Judah St", "San Francisco, CA 94122"]}, "phone": "+14156814010", "display_phone": "(415) 681-4010", "distance": 2309.485217064769}, {"id": "5ZZeBf0SohPwM2EtRf7kpg", "alias": "izumi-kaiten-sushi-san-francisco", "name": "Izumi Kaiten Sushi", "image_url": "https://s3-media4.fl.yelpcdn.com/bphoto/9siucxapl-KJXkkkZVcY3g/o.jpg", "is_closed": false, "url": "https://www.yelp.com/biz/izumi-kaiten-sushi-san-francisco?adjust_creative=YxudJyndSed2kqfC9K7Xig&utm_campaign=yelp_api_v3&utm_medium=api_v3_business_search&utm_source=YxudJyndSed2kqfC9K7Xig", "review_count": 200, "categories": [{"alias": "conveyorsushi", "title": "Conveyor Belt Sushi"}], "rating": 3.5, "coordinates": {"latitude": 37.78530186842367, "longitude": -122.43042561165808}, "transactions": ["pickup", "delivery"], "price": "$$", "location": {"address1": "1737 Post St", "address2": null, "address3": null, "city": "San Francisco", "zip_code": "94115", "country": "US", "state": "CA", "display_address": ["1737 Post St", "San Francisco, CA 94115"]}, "phone": "+14158729545", "display_phone": "(415) 872-9545", "distance": 2764.5619486729133}, {"id": "4cXj-H3qt-fE4Ly8giRP-A", "alias": "izumi-revolving-sushi-daly-city-2", "name": "Izumi Revolving Sushi", "image_url": "https://s3-media1.fl.yelpcdn.com/bphoto/8s2-JyVPPOfnR7H5RghzFQ/o.jpg", "is_closed": false, "url": "https://www.yelp.com/biz/izumi-revolving-sushi-daly-city-2?adjust_creative=YxudJyndSed2kqfC9K7Xig&utm_campaign=yelp_api_v3&utm_medium=api_v3_business_search&utm_source=YxudJyndSed2kqfC9K7Xig", "review_count": 265, "categories": [{"alias": "sushi", "title": "Sushi Bars"}, {"alias": "conveyorsushi", "title": "Conveyor Belt Sushi"}], "rating": 3.5, "coordinates": {"latitude": 37.671829010252814, "longitude": -122.47163706661541}, "transactions": ["pickup", "delivery"], "price": "$$", "location": {"address1": "94 Serramonte Ctr", "address2": null, "address3": null, "city": "Daly City", "zip_code": "94015", "country": "US", "state": "CA", "display_address": ["94 Serramonte Ctr", "Daly City, CA 94015"]}, "phone": "+16509855555", "display_phone": "(650) 985-5555", "distance": 10376.583066478617}, {"id": "Qv-yh5vmrN7mss3BNsqhQg", "alias": "onigilly-san-francisco-san-francisco", "name": "Onigilly - San Francisco", "image_url": "https://s3-media4.fl.yelpcdn.com/bphoto/kLSp_AHwe59BP9RHRgGjJg/o.jpg", "is_closed": false, "url": "https://www.yelp.com/biz/onigilly-san-francisco-san-francisco?adjust_creative=YxudJyndSed2kqfC9K7Xig&utm_campaign=yelp_api_v3&utm_medium=api_v3_business_search&utm_source=YxudJyndSed2kqfC9K7Xig", "review_count": 587, "categories": [{"alias": "japanese", "title": "Japanese"}, {"alias": "hotdogs", "title": "Fast Food"}], "rating": 4.0, "coordinates": {"latitude": 37.7914033, "longitude": -122.404308}, "transactions": ["pickup", "delivery"], "price": "$$", "location": {"address1": "343 Kearny St", "address2": "", "address3": "", "city": "San Francisco", "zip_code": "94108", "country": "US", "state": "CA", "display_address": ["343 Kearny St", "San Francisco, CA 94108"]}, "phone": "+14156714706", "display_phone": "(415) 671-4706", "distance": 4414.036088832099}, {"id": "k8UnUjLkikZSdJ8NYWl6zA", "alias": "maruya-san-francisco", "name": "Maruya", "image_url": "https://s3-media1.fl.yelpcdn.com/bphoto/odD0rKaBOUgnh8LeBT30ew/o.jpg", "is_closed": false, "url": "https://www.yelp.com/biz/maruya-san-francisco?adjust_creative=YxudJyndSed2kqfC9K7Xig&utm_campaign=yelp_api_v3&utm_medium=api_v3_business_search&utm_source=YxudJyndSed2kqfC9K7Xig", "review_count": 383, "categories": [{"alias": "japanese", "title": "Japanese"}, {"alias": "sushi", "title": "Sushi Bars"}, {"alias": "vegetarian", "title": "Vegetarian"}], "rating": 4.0, "coordinates": {"latitude": 37.7649327, "longitude": -122.4183186}, "transactions": [], "price": "$$$$", "location": {"address1": "2931 16th St", "address2": "", "address3": "", "city": "San Francisco", "zip_code": "94103", "country": "US", "state": "CA", "display_address": ["2931 16th St", "San Francisco, CA 94103"]}, "phone": "+14155030702", "display_phone": "(415) 503-0702", "distance": 1655.499290175055}, {"id": "zJJLf4G59XnptnpLZmPqaA", "alias": "sushi-chef-san-francisco", "name": "Sushi Chef", "image_url": "https://s3-media2.fl.yelpcdn.com/bphoto/H6dTRpBLkaVnKTvg2eHDTg/o.jpg", "is_closed": false, "url": "https://www.yelp.com/biz/sushi-chef-san-francisco?adjust_creative=YxudJyndSed2kqfC9K7Xig&utm_campaign=yelp_api_v3&utm_medium=api_v3_business_search&utm_source=YxudJyndSed2kqfC9K7Xig", "review_count": 47, "categories": [{"alias": "sushi", "title": "Sushi Bars"}, {"alias": "ramen", "title": "Ramen"}], "rating": 4.5, "coordinates": {"latitude": 37.79723, "longitude": -122.40612}, "transactions": ["restaurant_reservation", "pickup", "delivery"], "location": {"address1": "229 Columbus Ave", "address2": null, "address3": "", "city": "San Francisco", "zip_code": "94133", "country": "US", "state": "CA", "display_address": ["229 Columbus Ave", "San Francisco, CA 94133"]}, "phone": "+14156136996", "display_phone": "(415) 613-6996", "distance": 4845.872807702874}, {"id": "vfK7_QDzzQfzaXf4zOz0fA", "alias": "taraval-okazu-ya-restaurant-san-francisco", "name": "Taraval Okazu Ya Restaurant", "image_url": "https://s3-media2.fl.yelpcdn.com/bphoto/gukVqZbjyAoXSdzH51uPfQ/o.jpg", "is_closed": false, "url": "https://www.yelp.com/biz/taraval-okazu-ya-restaurant-san-francisco?adjust_creative=YxudJyndSed2kqfC9K7Xig&utm_campaign=yelp_api_v3&utm_medium=api_v3_business_search&utm_source=YxudJyndSed2kqfC9K7Xig", "review_count": 1001, "categories": [{"alias": "japanese", "title": "Japanese"}, {"alias": "sushi", "title": "Sushi Bars"}], "rating": 3.5, "coordinates": {"latitude": 37.74239, "longitude": -122.48486}, "transactions": ["delivery"], "price": "$$", "location": {"address1": "1735 Taraval St", "address2": "", "address3": "", "city": "San Francisco", "zip_code": "94116", "country": "US", "state": "CA", "display_address": ["1735 Taraval St", "San Francisco, CA 94116"]}, "phone": "+14157596850", "display_phone": "(415) 759-6850", "distance": 4726.569072089258}, {"id": "FkmficKyZxewFcG5H2FcNg", "alias": "okoze-sushi-san-francisco", "name": "Okoze Sushi", "image_url": "https://s3-media2.fl.yelpcdn.com/bphoto/QTt1R259AAzXbeb27PQDDQ/o.jpg", "is_closed": false, "url": "https://www.yelp.com/biz/okoze-sushi-san-francisco?adjust_creative=YxudJyndSed2kqfC9K7Xig&utm_campaign=yelp_api_v3&utm_medium=api_v3_business_search&utm_source=YxudJyndSed2kqfC9K7Xig", "review_count": 690, "categories": [{"alias": "sushi", "title": "Sushi Bars"}, {"alias": "japanese", "title": "Japanese"}, {"alias": "tapasmallplates", "title": "Tapas/Small Plates"}], "rating": 4.0, "coordinates": {"latitude": 37.79899, "longitude": -122.41929}, "transactions": ["delivery"], "price": "$$$", "location": {"address1": "1207 Union St", "address2": "", "address3": "", "city": "San Francisco", "zip_code": "94109", "country": "US", "state": "CA", "display_address": ["1207 Union St", "San Francisco, CA 94109"]}, "phone": "+14155673397", "display_phone": "(415) 567-3397", "distance": 4497.629850224931}, {"id": "X8rR2iATM35vfKhqN1nvFQ", "alias": "walking-fish-san-francisco", "name": "Walking Fish", "image_url": "https://s3-media2.fl.yelpcdn.com/bphoto/n2mwFSnr7DaFxqhFYVL8Tw/o.jpg", "is_closed": false, "url": "https://www.yelp.com/biz/walking-fish-san-francisco?adjust_creative=YxudJyndSed2kqfC9K7Xig&utm_campaign=yelp_api_v3&utm_medium=api_v3_business_search&utm_source=YxudJyndSed2kqfC9K7Xig", "review_count": 81, "categories": [{"alias": "poke", "title": "Poke"}], "rating": 4.0, "coordinates": {"latitude": 37.77193, "longitude": -122.43013}, "transactions": ["pickup", "delivery"], "location": {"address1": "254 Fillmore St", "address2": "", "address3": null, "city": "San Francisco", "zip_code": "94117", "country": "US", "state": "CA", "display_address": ["254 Fillmore St", "San Francisco, CA 94117"]}, "phone": "+14154390876", "display_phone": "(415) 439-0876", "distance": 1340.881076926062}, {"id": "R6jGl0h5grhJIP2E1k0V_w", "alias": "sushi-go-go-san-francisco-5", "name": "Sushi Go Go", "image_url": "https://s3-media1.fl.yelpcdn.com/bphoto/iwP3Gd14lFHOnJBC6i-y-Q/o.jpg", "is_closed": false, "url": "https://www.yelp.com/biz/sushi-go-go-san-francisco-5?adjust_creative=YxudJyndSed2kqfC9K7Xig&utm_campaign=yelp_api_v3&utm_medium=api_v3_business_search&utm_source=YxudJyndSed2kqfC9K7Xig", "review_count": 46, "categories": [{"alias": "sushi", "title": "Sushi Bars"}, {"alias": "fooddeliveryservices", "title": "Food Delivery Services"}, {"alias": "poke", "title": "Poke"}], "rating": 4.0, "coordinates": {"latitude": 37.807098, "longitude": -122.415835}, "transactions": ["pickup", "delivery"], "location": {"address1": "2699 Taylor St", "address2": null, "address3": "", "city": "San Francisco", "zip_code": "94104", "country": "US", "state": "CA", "display_address": ["2699 Taylor St", "San Francisco, CA 94104"]}, "phone": "+14155192732", "display_phone": "(415) 519-2732", "distance": 5451.694747827228}, {"id": "YDeqSFd7qdbbFiBUO6Gpjw", "alias": "noriega-teriyaki-house-san-francisco", "name": "Noriega Teriyaki House", "image_url": "https://s3-media4.fl.yelpcdn.com/bphoto/b6Un3iwSjVCV71QQ2YFY4A/o.jpg", "is_closed": false, "url": "https://www.yelp.com/biz/noriega-teriyaki-house-san-francisco?adjust_creative=YxudJyndSed2kqfC9K7Xig&utm_campaign=yelp_api_v3&utm_medium=api_v3_business_search&utm_source=YxudJyndSed2kqfC9K7Xig", "review_count": 728, "categories": [{"alias": "japanese", "title": "Japanese"}, {"alias": "sushi", "title": "Sushi Bars"}], "rating": 3.5, "coordinates": {"latitude": 37.75380229999126, "longitude": -122.48264176442109}, "transactions": ["pickup", "delivery"], "price": "$$", "location": {"address1": "1755 Noriega St", "address2": "", "address3": "", "city": "San Francisco", "zip_code": "94122", "country": "US", "state": "CA", "display_address": ["1755 Noriega St", "San Francisco, CA 94122"]}, "phone": "+14156647766", "display_phone": "(415) 664-7766", "distance": 4137.0196741260725}, {"id": "zM3ITBTfY6tMfN2uITLmzQ", "alias": "yume-sushi-san-francisco-2", "name": "Yume Sushi", "image_url": "https://s3-media4.fl.yelpcdn.com/bphoto/v0WMW0wFMGJPgdCusP1PKQ/o.jpg", "is_closed": false, "url": "https://www.yelp.com/biz/yume-sushi-san-francisco-2?adjust_creative=YxudJyndSed2kqfC9K7Xig&utm_campaign=yelp_api_v3&utm_medium=api_v3_business_search&utm_source=YxudJyndSed2kqfC9K7Xig", "review_count": 22, "categories": [{"alias": "sushi", "title": "Sushi Bars"}], "rating": 4.5, "coordinates": {"latitude": 37.731294, "longitude": -122.452431}, "transactions": ["pickup", "delivery"], "location": {"address1": "757 Monterey Blvd", "address2": null, "address3": "", "city": "San Francisco", "zip_code": "94127", "country": "US", "state": "CA", "display_address": ["757 Monterey Blvd", "San Francisco, CA 94127"]}, "phone": "+14153338500", "display_phone": "(415) 333-8500", "distance": 3573.030871384093}, {"id": "2HkCgE_-ZzJS6k5Gb4LKHw", "alias": "sushi-shio-san-francisco", "name": "Sushi Shio", "image_url": "https://s3-media1.fl.yelpcdn.com/bphoto/SqYdelM0H4FeGcw_n6KfIQ/o.jpg", "is_closed": false, "url": "https://www.yelp.com/biz/sushi-shio-san-francisco?adjust_creative=YxudJyndSed2kqfC9K7Xig&utm_campaign=yelp_api_v3&utm_medium=api_v3_business_search&utm_source=YxudJyndSed2kqfC9K7Xig", "review_count": 207, "categories": [{"alias": "sushi", "title": "Sushi Bars"}, {"alias": "japanese", "title": "Japanese"}], "rating": 4.0, "coordinates": {"latitude": 37.769617, "longitude": -122.422573}, "transactions": ["pickup", "delivery"], "price": "$$$$", "location": {"address1": "206 Valencia St", "address2": "", "address3": null, "city": "San Francisco", "zip_code": "94103", "country": "US", "state": "CA", "display_address": ["206 Valencia St", "San Francisco, CA 94103"]}, "phone": "+14155291030", "display_phone": "(415) 529-1030", "distance": 1561.2473575098902}, {"id": "ey_UUXdDMUoO77QIF6SGaQ", "alias": "mensho-tokyo-sf-san-francisco", "name": "Mensho Tokyo SF", "image_url": "https://s3-media4.fl.yelpcdn.com/bphoto/uomq4DNKEt40P7uKZo_vEQ/o.jpg", "is_closed": false, "url": "https://www.yelp.com/biz/mensho-tokyo-sf-san-francisco?adjust_creative=YxudJyndSed2kqfC9K7Xig&utm_campaign=yelp_api_v3&utm_medium=api_v3_business_search&utm_source=YxudJyndSed2kqfC9K7Xig", "review_count": 2830, "categories": [{"alias": "ramen", "title": "Ramen"}, {"alias": "noodles", "title": "Noodles"}], "rating": 4.0, "coordinates": {"latitude": 37.78686, "longitude": -122.41439}, "transactions": ["delivery"], "price": "$$", "location": {"address1": "672 Geary St", "address2": "", "address3": "", "city": "San Francisco", "zip_code": "94102", "country": "US", "state": "CA", "display_address": ["672 Geary St", "San Francisco, CA 94102"]}, "phone": "+14158008345", "display_phone": "(415) 800-8345", "distance": 3467.786025856827}, {"id": "9gW2kzWOU98qm6xyar-fhA", "alias": "mokis-sushi-and-pacific-grill-san-francisco", "name": "Moki's Sushi & Pacific Grill", "image_url": "https://s3-media2.fl.yelpcdn.com/bphoto/RatA3aElWLzKIUCG4W7sAw/o.jpg", "is_closed": false, "url": "https://www.yelp.com/biz/mokis-sushi-and-pacific-grill-san-francisco?adjust_creative=YxudJyndSed2kqfC9K7Xig&utm_campaign=yelp_api_v3&utm_medium=api_v3_business_search&utm_source=YxudJyndSed2kqfC9K7Xig", "review_count": 503, "categories": [{"alias": "sushi", "title": "Sushi Bars"}, {"alias": "japanese", "title": "Japanese"}, {"alias": "hawaiian", "title": "Hawaiian"}], "rating": 4.0, "coordinates": {"latitude": 37.7391002, "longitude": -122.4155353}, "transactions": ["pickup", "delivery"], "price": "$$", "location": {"address1": "615 Cortland Ave", "address2": "", "address3": "", "city": "San Francisco", "zip_code": "94110", "country": "US", "state": "CA", "display_address": ["615 Cortland Ave", "San Francisco, CA 94110"]}, "phone": "+14159709336", "display_phone": "(415) 970-9336", "distance": 3035.498062099399}, {"id": "2E9O-p-lp587aOMnpLepkQ", "alias": "jijime-san-francisco-8", "name": "JIJIME", "image_url": "https://s3-media2.fl.yelpcdn.com/bphoto/gPimyZSIMZOG4IeYT_6i5w/o.jpg", "is_closed": false, "url": "https://www.yelp.com/biz/jijime-san-francisco-8?adjust_creative=YxudJyndSed2kqfC9K7Xig&utm_campaign=yelp_api_v3&utm_medium=api_v3_business_search&utm_source=YxudJyndSed2kqfC9K7Xig", "review_count": 569, "categories": [{"alias": "korean", "title": "Korean"}, {"alias": "asianfusion", "title": "Asian Fusion"}, {"alias": "ramen", "title": "Ramen"}], "rating": 4.5, "coordinates": {"latitude": 37.7806549278456, "longitude": -122.478949574806}, "transactions": ["delivery", "pickup"], "price": "$$", "location": {"address1": "5524 Geary Blvd", "address2": "", "address3": null, "city": "San Francisco", "zip_code": "94121", "country": "US", "state": "CA", "display_address": ["5524 Geary Blvd", "San Francisco, CA 94121"]}, "phone": "+14152215353", "display_phone": "(415) 221-5353", "distance": 4333.781775165417}, {"id": "PMKHqnEC56o64SbSI0jarw", "alias": "samurai-mill-valley", "name": "Samurai", "image_url": "https://s3-media2.fl.yelpcdn.com/bphoto/i5wvOhod68HWgXNhYvJKgw/o.jpg", "is_closed": false, "url": "https://www.yelp.com/biz/samurai-mill-valley?adjust_creative=YxudJyndSed2kqfC9K7Xig&utm_campaign=yelp_api_v3&utm_medium=api_v3_business_search&utm_source=YxudJyndSed2kqfC9K7Xig", "review_count": 262, "categories": [{"alias": "sushi", "title": "Sushi Bars"}, {"alias": "japanese", "title": "Japanese"}], "rating": 4.0, "coordinates": {"latitude": 37.89643, "longitude": -122.5354}, "transactions": ["delivery"], "price": "$$", "location": {"address1": "425 Miller Ave", "address2": "", "address3": "", "city": "Mill Valley", "zip_code": "94941", "country": "US", "state": "CA", "display_address": ["425 Miller Ave", "Mill Valley, CA 94941"]}, "phone": "+14153813680", "display_phone": "(415) 381-3680", "distance": 17374.184041101067}, {"id": "JPL5OqxmoKGWXZxVSlYkag", "alias": "yo-yos-san-francisco", "name": "Yo Yo's", "image_url": "https://s3-media4.fl.yelpcdn.com/bphoto/lNNiQesx7SjCpvu_njjmvg/o.jpg", "is_closed": false, "url": "https://www.yelp.com/biz/yo-yos-san-francisco?adjust_creative=YxudJyndSed2kqfC9K7Xig&utm_campaign=yelp_api_v3&utm_medium=api_v3_business_search&utm_source=YxudJyndSed2kqfC9K7Xig", "review_count": 609, "categories": [{"alias": "japanese", "title": "Japanese"}], "rating": 4.5, "coordinates": {"latitude": 37.7977025439747, "longitude": -122.401235478539}, "transactions": ["delivery"], "price": "$", "location": {"address1": "318 Pacific Ave", "address2": "", "address3": "", "city": "San Francisco", "zip_code": "94111", "country": "US", "state": "CA", "display_address": ["318 Pacific Ave", "San Francisco, CA 94111"]}, "phone": "+14152968273", "display_phone": "(415) 296-8273", "distance": 5130.657698081461}, {"id": "vFpnaHTIXwQKDBra-avR7w", "alias": "we-be-sushi-san-francisco-2", "name": "We Be Sushi", "image_url": "https://s3-media2.fl.yelpcdn.com/bphoto/y9_RGY5NJYav7YzgXsvRRQ/o.jpg", "is_closed": false, "url": "https://www.yelp.com/biz/we-be-sushi-san-francisco-2?adjust_creative=YxudJyndSed2kqfC9K7Xig&utm_campaign=yelp_api_v3&utm_medium=api_v3_business_search&utm_source=YxudJyndSed2kqfC9K7Xig", "review_count": 433, "categories": [{"alias": "sushi", "title": "Sushi Bars"}, {"alias": "japanese", "title": "Japanese"}, {"alias": "asianfusion", "title": "Asian Fusion"}], "rating": 3.5, "coordinates": {"latitude": 37.76426, "longitude": -122.42212}, "transactions": ["delivery", "pickup"], "price": "$$", "location": {"address1": "538 Valencia St", "address2": "", "address3": "", "city": "San Francisco", "zip_code": "94110", "country": "US", "state": "CA", "display_address": ["538 Valencia St", "San Francisco, CA 94110"]}, "phone": "+14155650749", "display_phone": "(415) 565-0749", "distance": 1314.7220531583241}, {"id": "u2qFhVAiH3kQIGhEW6PmMA", "alias": "zushi-puzzle-san-francisco-2", "name": "Zushi Puzzle", "image_url": "https://s3-media4.fl.yelpcdn.com/bphoto/nzhq4mRnQeibqZAh37q_rQ/o.jpg", "is_closed": false, "url": "https://www.yelp.com/biz/zushi-puzzle-san-francisco-2?adjust_creative=YxudJyndSed2kqfC9K7Xig&utm_campaign=yelp_api_v3&utm_medium=api_v3_business_search&utm_source=YxudJyndSed2kqfC9K7Xig", "review_count": 1391, "categories": [{"alias": "sushi", "title": "Sushi Bars"}, {"alias": "japanese", "title": "Japanese"}, {"alias": "salad", "title": "Salad"}], "rating": 4.0, "coordinates": {"latitude": 37.80052, "longitude": -122.43308}, "transactions": ["delivery"], "price": "$$$", "location": {"address1": "1910 Lombard St", "address2": "", "address3": "", "city": "San Francisco", "zip_code": "94123", "country": "US", "state": "CA", "display_address": ["1910 Lombard St", "San Francisco, CA 94123"]}, "phone": "+14159319319", "display_phone": "(415) 931-9319", "distance": 4400.161669890425}, {"id": "UdRV_X0aah6c2_LLbB8dGg", "alias": "yama-chan-san-francisco", "name": "Yama-chan", "image_url": "https://s3-media1.fl.yelpcdn.com/bphoto/uvgmmk4LDybM7DF7O5sU8A/o.jpg", "is_closed": false, "url": "https://www.yelp.com/biz/yama-chan-san-francisco?adjust_creative=YxudJyndSed2kqfC9K7Xig&utm_campaign=yelp_api_v3&utm_medium=api_v3_business_search&utm_source=YxudJyndSed2kqfC9K7Xig", "review_count": 221, "categories": [{"alias": "japanese", "title": "Japanese"}], "rating": 4.0, "coordinates": {"latitude": 37.7850837968313, "longitude": -122.4305618722681}, "transactions": ["delivery"], "price": "$", "location": {"address1": "1737 Post St", "address2": "Unit 395", "address3": null, "city": "San Francisco", "zip_code": "94115", "country": "US", "state": "CA", "display_address": ["1737 Post St", "Unit 395", "San Francisco, CA 94115"]}, "phone": "", "display_phone": "", "distance": 2738.478627927089}, {"id": "5xp-qHGhzEzXevsSzYrwkg", "alias": "pacific-catch-san-francisco-7", "name": "Pacific Catch", "image_url": "https://s3-media4.fl.yelpcdn.com/bphoto/kA1n0Da8nZ4H-03L_uV79g/o.jpg", "is_closed": false, "url": "https://www.yelp.com/biz/pacific-catch-san-francisco-7?adjust_creative=YxudJyndSed2kqfC9K7Xig&utm_campaign=yelp_api_v3&utm_medium=api_v3_business_search&utm_source=YxudJyndSed2kqfC9K7Xig", "review_count": 1739, "categories": [{"alias": "seafood", "title": "Seafood"}, {"alias": "sushi", "title": "Sushi Bars"}, {"alias": "tacos", "title": "Tacos"}], "rating": 4.0, "coordinates": {"latitude": 37.80057, "longitude": -122.43652}, "transactions": ["delivery", "pickup"], "price": "$$", "location": {"address1": "2027 Chestnut St", "address2": "", "address3": "", "city": "San Francisco", "zip_code": "94123", "country": "US", "state": "CA", "display_address": ["2027 Chestnut St", "San Francisco, CA 94123"]}, "phone": "+14154401950", "display_phone": "(415) 440-1950", "distance": 4415.685839260427}, {"id": "emS6NzwOiBQGKYPiYu0ZVg", "alias": "yama-sushi-san-francisco-san-francisco", "name": "Yama Sushi - San Francisco", "image_url": "https://s3-media1.fl.yelpcdn.com/bphoto/fIgwo_zUG--Jy6pcimCD5g/o.jpg", "is_closed": false, "url": "https://www.yelp.com/biz/yama-sushi-san-francisco-san-francisco?adjust_creative=YxudJyndSed2kqfC9K7Xig&utm_campaign=yelp_api_v3&utm_medium=api_v3_business_search&utm_source=YxudJyndSed2kqfC9K7Xig", "review_count": 461, "categories": [{"alias": "sushi", "title": "Sushi Bars"}, {"alias": "ramen", "title": "Ramen"}], "rating": 3.0, "coordinates": {"latitude": 37.721968, "longitude": -122.46204}, "transactions": ["delivery", "pickup"], "price": "$$", "location": {"address1": "850 Holloway Ave", "address2": null, "address3": "", "city": "San Francisco", "zip_code": "94112", "country": "US", "state": "CA", "display_address": ["850 Holloway Ave", "San Francisco, CA 94112"]}, "phone": "+14153332889", "display_phone": "(415) 333-2889", "distance": 4881.827097559142}, {"id": "T1DIDe7MdSdPOpPT_VJzpw", "alias": "ten-ichi-san-francisco", "name": "Ten-Ichi", "image_url": "https://s3-media3.fl.yelpcdn.com/bphoto/P2tgHhEaMGsfMQ70cBvVzQ/o.jpg", "is_closed": false, "url": "https://www.yelp.com/biz/ten-ichi-san-francisco?adjust_creative=YxudJyndSed2kqfC9K7Xig&utm_campaign=yelp_api_v3&utm_medium=api_v3_business_search&utm_source=YxudJyndSed2kqfC9K7Xig", "review_count": 365, "categories": [{"alias": "japanese", "title": "Japanese"}, {"alias": "sushi", "title": "Sushi Bars"}], "rating": 3.5, "coordinates": {"latitude": 37.79027, "longitude": -122.43444}, "transactions": ["delivery", "pickup"], "price": "$$", "location": {"address1": "2235 Fillmore St", "address2": "", "address3": "", "city": "San Francisco", "zip_code": "94115", "country": "US", "state": "CA", "display_address": ["2235 Fillmore St", "San Francisco, CA 94115"]}, "phone": "+14153463477", "display_phone": "(415) 346-3477", "distance": 3274.4493027098124}, {"id": "wAwwPDRiO2qYsk7VgcNi_Q", "alias": "thats-my-jam-san-francisco", "name": "That's My Jam", "image_url": "https://s3-media2.fl.yelpcdn.com/bphoto/5bej40Lza2OQuh4aoBmJhQ/o.jpg", "is_closed": false, "url": "https://www.yelp.com/biz/thats-my-jam-san-francisco?adjust_creative=YxudJyndSed2kqfC9K7Xig&utm_campaign=yelp_api_v3&utm_medium=api_v3_business_search&utm_source=YxudJyndSed2kqfC9K7Xig", "review_count": 53, "categories": [{"alias": "salad", "title": "Salad"}, {"alias": "breakfast_brunch", "title": "Breakfast & Brunch"}, {"alias": "tapasmallplates", "title": "Tapas/Small Plates"}], "rating": 5.0, "coordinates": {"latitude": 37.77264, "longitude": -122.43699}, "transactions": [], "location": {"address1": "324 Divisadero St", "address2": null, "address3": "", "city": "San Francisco", "zip_code": "94117", "country": "US", "state": "CA", "display_address": ["324 Divisadero St", "San Francisco, CA 94117"]}, "phone": "", "display_phone": "", "distance": 1303.2179818614434}, {"id": "ya-X-WMp0AJg_o0DccJ1VQ", "alias": "moku-yakitori-ya-san-francisco", "name": "Moku Yakitori-Ya", "image_url": "https://s3-media1.fl.yelpcdn.com/bphoto/741PPl_1Sr9iXcmabYKTsQ/o.jpg", "is_closed": false, "url": "https://www.yelp.com/biz/moku-yakitori-ya-san-francisco?adjust_creative=YxudJyndSed2kqfC9K7Xig&utm_campaign=yelp_api_v3&utm_medium=api_v3_business_search&utm_source=YxudJyndSed2kqfC9K7Xig", "review_count": 93, "categories": [{"alias": "izakaya", "title": "Izakaya"}, {"alias": "tapasmallplates", "title": "Tapas/Small Plates"}], "rating": 4.5, "coordinates": {"latitude": 37.78256890000001, "longitude": -122.4664414}, "transactions": [], "location": {"address1": "312 8th Ave", "address2": "", "address3": null, "city": "San Francisco", "zip_code": "94118", "country": "US", "state": "CA", "display_address": ["312 8th Ave", "San Francisco, CA 94118"]}, "phone": "", "display_phone": "", "distance": 3571.574301622349}, {"id": "V5974FAv8IJmMU_fkG3w0A", "alias": "mikawa-san-francisco", "name": "Mikawa", "image_url": "https://s3-media2.fl.yelpcdn.com/bphoto/qVPrHaFP2gAq89k1Ef2XHg/o.jpg", "is_closed": false, "url": "https://www.yelp.com/biz/mikawa-san-francisco?adjust_creative=YxudJyndSed2kqfC9K7Xig&utm_campaign=yelp_api_v3&utm_medium=api_v3_business_search&utm_source=YxudJyndSed2kqfC9K7Xig", "review_count": 28, "categories": [{"alias": "japanese", "title": "Japanese"}], "rating": 4.0, "coordinates": {"latitude": 37.78181187836246, "longitude": -122.4855282}, "transactions": ["delivery", "pickup"], "price": "$$", "location": {"address1": "2435 Clement St", "address2": null, "address3": "", "city": "San Francisco", "zip_code": "94121", "country": "US", "state": "CA", "display_address": ["2435 Clement St", "San Francisco, CA 94121"]}, "phone": "+14157026296", "display_phone": "(415) 702-6296", "distance": 4900.795697400559}, {"id": "A_2m0mcKEqOJ1XsqUbzUIg", "alias": "amitis-caf\u00e9-san-francisco-2", "name": "Amitis Caf\u00e9", "image_url": "https://s3-media3.fl.yelpcdn.com/bphoto/F-d1bK47DO4q0mHJH2FTow/o.jpg", "is_closed": false, "url": "https://www.yelp.com/biz/amitis-caf%C3%A9-san-francisco-2?adjust_creative=YxudJyndSed2kqfC9K7Xig&utm_campaign=yelp_api_v3&utm_medium=api_v3_business_search&utm_source=YxudJyndSed2kqfC9K7Xig", "review_count": 270, "categories": [{"alias": "poke", "title": "Poke"}, {"alias": "sushi", "title": "Sushi Bars"}, {"alias": "japacurry", "title": "Japanese Curry"}], "rating": 4.5, "coordinates": {"latitude": 37.77384, "longitude": -122.44583}, "transactions": ["delivery", "pickup"], "price": "$$", "location": {"address1": "800 Masonic Ave", "address2": null, "address3": "", "city": "San Francisco", "zip_code": "94117", "country": "US", "state": "CA", "display_address": ["800 Masonic Ave", "San Francisco, CA 94117"]}, "phone": "+14155632828", "display_phone": "(415) 563-2828", "distance": 1660.6934320313992}, {"id": "Wo-ruLEoNLGNGG7gTv7LoA", "alias": "atami-sushi-bar-and-grill-san-francisco", "name": "Atami Sushi Bar & Grill", "image_url": "https://s3-media2.fl.yelpcdn.com/bphoto/_QKfZb8McVJo2DE2jNvZoA/o.jpg", "is_closed": false, "url": "https://www.yelp.com/biz/atami-sushi-bar-and-grill-san-francisco?adjust_creative=YxudJyndSed2kqfC9K7Xig&utm_campaign=yelp_api_v3&utm_medium=api_v3_business_search&utm_source=YxudJyndSed2kqfC9K7Xig", "review_count": 314, "categories": [{"alias": "sushi", "title": "Sushi Bars"}, {"alias": "japanese", "title": "Japanese"}], "rating": 4.0, "coordinates": {"latitude": 37.80107, "longitude": -122.42894}, "transactions": ["delivery"], "price": "$$", "location": {"address1": "1662 Lombard St", "address2": "#A", "address3": "", "city": "San Francisco", "zip_code": "94123", "country": "US", "state": "CA", "display_address": ["1662 Lombard St", "#A", "San Francisco, CA 94123"]}, "phone": "+14156141958", "display_phone": "(415) 614-1958", "distance": 4502.825396977343}, {"id": "BRz0ocqDzNlGS-AG1IpXtA", "alias": "pabu-izakaya-san-francisco-san-francisco", "name": "PABU Izakaya", "image_url": "https://s3-media2.fl.yelpcdn.com/bphoto/39RYHKIp4HL9yU8Go3egQw/o.jpg", "is_closed": false, "url": "https://www.yelp.com/biz/pabu-izakaya-san-francisco-san-francisco?adjust_creative=YxudJyndSed2kqfC9K7Xig&utm_campaign=yelp_api_v3&utm_medium=api_v3_business_search&utm_source=YxudJyndSed2kqfC9K7Xig", "review_count": 1251, "categories": [{"alias": "japanese", "title": "Japanese"}, {"alias": "sushi", "title": "Sushi Bars"}, {"alias": "cocktailbars", "title": "Cocktail Bars"}], "rating": 4.0, "coordinates": {"latitude": 37.792795, "longitude": -122.397989}, "transactions": ["delivery", "pickup"], "price": "$$$$", "location": {"address1": "101 California St", "address2": null, "address3": "", "city": "San Francisco", "zip_code": "94111", "country": "US", "state": "CA", "display_address": ["101 California St", "San Francisco, CA 94111"]}, "phone": "+14155350184", "display_phone": "(415) 535-0184", "distance": 4899.3051885514615}, {"id": "XAIuCODMY4aFeBnpYZArdw", "alias": "beijing-tokyo-bistro-san-francisco", "name": "Beijing Tokyo Bistro", "image_url": "https://s3-media1.fl.yelpcdn.com/bphoto/EOHhZBT8a3JW7PPl3eHUpw/o.jpg", "is_closed": false, "url": "https://www.yelp.com/biz/beijing-tokyo-bistro-san-francisco?adjust_creative=YxudJyndSed2kqfC9K7Xig&utm_campaign=yelp_api_v3&utm_medium=api_v3_business_search&utm_source=YxudJyndSed2kqfC9K7Xig", "review_count": 33, "categories": [{"alias": "chinese", "title": "Chinese"}, {"alias": "japanese", "title": "Japanese"}], "rating": 4.0, "coordinates": {"latitude": 37.78834106855354, "longitude": -122.4402103}, "transactions": ["delivery", "pickup"], "location": {"address1": "2786 California St", "address2": null, "address3": null, "city": "San Francisco", "zip_code": "94115", "country": "US", "state": "CA", "display_address": ["2786 California St", "San Francisco, CA 94115"]}, "phone": "+14159210188", "display_phone": "(415) 921-0188", "distance": 3069.2452293244555}, {"id": "nsoV7I_i12nQNoTVfPW9Eg", "alias": "ia-poke-san-francisco-6", "name": "I'a Poke", "image_url": "https://s3-media4.fl.yelpcdn.com/bphoto/XXbefVXTVAEWvNEdBALvhw/o.jpg", "is_closed": false, "url": "https://www.yelp.com/biz/ia-poke-san-francisco-6?adjust_creative=YxudJyndSed2kqfC9K7Xig&utm_campaign=yelp_api_v3&utm_medium=api_v3_business_search&utm_source=YxudJyndSed2kqfC9K7Xig", "review_count": 296, "categories": [{"alias": "poke", "title": "Poke"}, {"alias": "sushi", "title": "Sushi Bars"}], "rating": 4.0, "coordinates": {"latitude": 37.7658573, "longitude": -122.4289446}, "transactions": ["delivery"], "price": "$$", "location": {"address1": "314 Church St", "address2": "", "address3": null, "city": "San Francisco", "zip_code": "94107", "country": "US", "state": "CA", "display_address": ["314 Church St", "San Francisco, CA 94107"]}, "phone": "+14158298030", "display_phone": "(415) 829-8030", "distance": 854.8923920968105}, {"id": "Fe-YjAdSRLqDC2H_pqPcSw", "alias": "hinodeya-ramen-bar-san-francisco", "name": "Hinodeya Ramen Bar", "image_url": "https://s3-media3.fl.yelpcdn.com/bphoto/SS9Bn0NlR7EgIJnwA3L_Zw/o.jpg", "is_closed": false, "url": "https://www.yelp.com/biz/hinodeya-ramen-bar-san-francisco?adjust_creative=YxudJyndSed2kqfC9K7Xig&utm_campaign=yelp_api_v3&utm_medium=api_v3_business_search&utm_source=YxudJyndSed2kqfC9K7Xig", "review_count": 1870, "categories": [{"alias": "ramen", "title": "Ramen"}], "rating": 4.0, "coordinates": {"latitude": 37.7861574638014, "longitude": -122.430057115853}, "transactions": ["delivery", "pickup"], "price": "$$", "location": {"address1": "1737 Buchanan St", "address2": "", "address3": null, "city": "San Francisco", "zip_code": "94115", "country": "US", "state": "CA", "display_address": ["1737 Buchanan St", "San Francisco, CA 94115"]}, "phone": "+14152165011", "display_phone": "(415) 216-5011", "distance": 2864.172030534964}, {"id": "1IqqA8pcuCIWJtuKfHwU8g", "alias": "nojo-ramen-tavern-san-francisco-6", "name": "Nojo Ramen Tavern", "image_url": "https://s3-media3.fl.yelpcdn.com/bphoto/f8jcPmO2OhZr9w11Bj2zeg/o.jpg", "is_closed": false, "url": "https://www.yelp.com/biz/nojo-ramen-tavern-san-francisco-6?adjust_creative=YxudJyndSed2kqfC9K7Xig&utm_campaign=yelp_api_v3&utm_medium=api_v3_business_search&utm_source=YxudJyndSed2kqfC9K7Xig", "review_count": 1190, "categories": [{"alias": "ramen", "title": "Ramen"}, {"alias": "izakaya", "title": "Izakaya"}], "rating": 4.0, "coordinates": {"latitude": 37.77669, "longitude": -122.42151}, "transactions": ["delivery", "pickup"], "price": "$$", "location": {"address1": "231 Franklin St", "address2": "", "address3": "", "city": "San Francisco", "zip_code": "94102", "country": "US", "state": "CA", "display_address": ["231 Franklin St", "San Francisco, CA 94102"]}, "phone": "+14158964587", "display_phone": "(415) 896-4587", "distance": 2195.1792248237157}, {"id": "oi-jTQzuKRG_7q3u70LHDg", "alias": "moshi-moshi-san-francisco", "name": "Moshi Moshi", "image_url": "https://s3-media3.fl.yelpcdn.com/bphoto/OjPpu53hDp2CLHA4KANotg/o.jpg", "is_closed": false, "url": "https://www.yelp.com/biz/moshi-moshi-san-francisco?adjust_creative=YxudJyndSed2kqfC9K7Xig&utm_campaign=yelp_api_v3&utm_medium=api_v3_business_search&utm_source=YxudJyndSed2kqfC9K7Xig", "review_count": 822, "categories": [{"alias": "sushi", "title": "Sushi Bars"}, {"alias": "japanese", "title": "Japanese"}, {"alias": "cocktailbars", "title": "Cocktail Bars"}], "rating": 4.0, "coordinates": {"latitude": 37.76317650208631, "longitude": -122.38898548220352}, "transactions": ["delivery", "pickup"], "price": "$$$", "location": {"address1": "2092 3rd St", "address2": "", "address3": "", "city": "San Francisco", "zip_code": "94107", "country": "US", "state": "CA", "display_address": ["2092 3rd St", "San Francisco, CA 94107"]}, "phone": "+14158618285", "display_phone": "(415) 861-8285", "distance": 4179.853617874307}, {"id": "iae4_DggOHwwtrMx8waqhg", "alias": "nisei-san-francisco-3", "name": "Nisei", "image_url": "https://s3-media4.fl.yelpcdn.com/bphoto/ulzuCG8M2Lrb2o5rM--uFA/o.jpg", "is_closed": false, "url": "https://www.yelp.com/biz/nisei-san-francisco-3?adjust_creative=YxudJyndSed2kqfC9K7Xig&utm_campaign=yelp_api_v3&utm_medium=api_v3_business_search&utm_source=YxudJyndSed2kqfC9K7Xig", "review_count": 92, "categories": [{"alias": "japanese", "title": "Japanese"}], "rating": 4.5, "coordinates": {"latitude": 37.79815897912051, "longitude": -122.42210871657831}, "transactions": [], "price": "$$$$", "location": {"address1": "2316 Polk St", "address2": "", "address3": null, "city": "San Francisco", "zip_code": "94109", "country": "US", "state": "CA", "display_address": ["2316 Polk St", "San Francisco, CA 94109"]}, "phone": "+14158276898", "display_phone": "(415) 827-6898", "distance": 4330.473738728487}, {"id": "SaBTJzdovl39OGUxnbvvmw", "alias": "flying-ninja-san-francisco-5", "name": "Flying Ninja", "image_url": "https://s3-media3.fl.yelpcdn.com/bphoto/2OLlR_3Lkzu6NAFxN4jFTQ/o.jpg", "is_closed": false, "url": "https://www.yelp.com/biz/flying-ninja-san-francisco-5?adjust_creative=YxudJyndSed2kqfC9K7Xig&utm_campaign=yelp_api_v3&utm_medium=api_v3_business_search&utm_source=YxudJyndSed2kqfC9K7Xig", "review_count": 308, "categories": [{"alias": "sushi", "title": "Sushi Bars"}], "rating": 3.5, "coordinates": {"latitude": 37.8075826, "longitude": -122.4196672}, "transactions": ["pickup", "delivery"], "price": "$$", "location": {"address1": "461 Jefferson St", "address2": "", "address3": "", "city": "San Francisco", "zip_code": "94109", "country": "US", "state": "CA", "display_address": ["461 Jefferson St", "San Francisco, CA 94109"]}, "phone": "+14152926255", "display_phone": "(415) 292-6255", "distance": 5388.342640265337}, {"id": "x24zCTZhA-LiVgYMWs6Wqw", "alias": "ernest-san-francisco", "name": "Ernest", "image_url": "https://s3-media3.fl.yelpcdn.com/bphoto/aJ4hA6LIbVU3HR51KSLDXw/o.jpg", "is_closed": false, "url": "https://www.yelp.com/biz/ernest-san-francisco?adjust_creative=YxudJyndSed2kqfC9K7Xig&utm_campaign=yelp_api_v3&utm_medium=api_v3_business_search&utm_source=YxudJyndSed2kqfC9K7Xig", "review_count": 389, "categories": [{"alias": "newamerican", "title": "American (New)"}, {"alias": "seafood", "title": "Seafood"}, {"alias": "bars", "title": "Bars"}], "rating": 4.5, "coordinates": {"latitude": 37.76317732013103, "longitude": -122.41094887566513}, "transactions": [], "price": "$$$", "location": {"address1": "1890 Bryant St", "address2": "Ste 100", "address3": null, "city": "San Francisco", "zip_code": "94110", "country": "US", "state": "CA", "display_address": ["1890 Bryant St", "Ste 100", "San Francisco, CA 94110"]}, "phone": "+14158292961", "display_phone": "(415) 829-2961", "distance": 2255.7237621831046}, {"id": "NI49vg3BRErnPDDytqgkYQ", "alias": "nabe-san-francisco-3", "name": "Nabe", "image_url": "https://s3-media3.fl.yelpcdn.com/bphoto/abBSPcZZRtNBFlmLw19DrQ/o.jpg", "is_closed": false, "url": "https://www.yelp.com/biz/nabe-san-francisco-3?adjust_creative=YxudJyndSed2kqfC9K7Xig&utm_campaign=yelp_api_v3&utm_medium=api_v3_business_search&utm_source=YxudJyndSed2kqfC9K7Xig", "review_count": 585, "categories": [{"alias": "hotpot", "title": "Hot Pot"}, {"alias": "japanese", "title": "Japanese"}], "rating": 4.0, "coordinates": {"latitude": 37.76355023655015, "longitude": -122.46645184360641}, "transactions": ["pickup", "delivery"], "price": "$$", "location": {"address1": "1325 9th Ave", "address2": "", "address3": "", "city": "San Francisco", "zip_code": "94122", "country": "US", "state": "CA", "display_address": ["1325 9th Ave", "San Francisco, CA 94122"]}, "phone": "+16282248388", "display_phone": "(628) 224-8388", "distance": 2654.0136424470356}, {"id": "iMsButW1ZqSssl_a9-UFXA", "alias": "grandehos-kamekyo-san-francisco-3", "name": "Grandehos Kamekyo", "image_url": "https://s3-media2.fl.yelpcdn.com/bphoto/N-ICfng0aOQixUXMMsmAVA/o.jpg", "is_closed": false, "url": "https://www.yelp.com/biz/grandehos-kamekyo-san-francisco-3?adjust_creative=YxudJyndSed2kqfC9K7Xig&utm_campaign=yelp_api_v3&utm_medium=api_v3_business_search&utm_source=YxudJyndSed2kqfC9K7Xig", "review_count": 545, "categories": [{"alias": "sushi", "title": "Sushi Bars"}, {"alias": "japanese", "title": "Japanese"}, {"alias": "korean", "title": "Korean"}], "rating": 4.0, "coordinates": {"latitude": 37.806178, "longitude": -122.420695}, "transactions": ["pickup", "delivery"], "price": "$$", "location": {"address1": "2721 Hyde St", "address2": "", "address3": "", "city": "San Francisco", "zip_code": "94109", "country": "US", "state": "CA", "display_address": ["2721 Hyde St", "San Francisco, CA 94109"]}, "phone": "+14156736828", "display_phone": "(415) 673-6828", "distance": 5221.588022437439}, {"id": "fchN6rNVAb1-OqxLMcdrvA", "alias": "ichido-san-francisco-6", "name": "Ichido", "image_url": "https://s3-media3.fl.yelpcdn.com/bphoto/DN_LmUGDfoj0MiKuU530Ag/o.jpg", "is_closed": false, "url": "https://www.yelp.com/biz/ichido-san-francisco-6?adjust_creative=YxudJyndSed2kqfC9K7Xig&utm_campaign=yelp_api_v3&utm_medium=api_v3_business_search&utm_source=YxudJyndSed2kqfC9K7Xig", "review_count": 128, "categories": [{"alias": "seafood", "title": "Seafood"}, {"alias": "japanese", "title": "Japanese"}, {"alias": "popuprestaurants", "title": "Pop-Up Restaurants"}], "rating": 5.0, "coordinates": {"latitude": 37.740426, "longitude": -122.403105}, "transactions": [], "price": "$$$$", "location": {"address1": "50 Apparel Way", "address2": null, "address3": "", "city": "San Francisco", "zip_code": "94124", "country": "US", "state": "CA", "display_address": ["50 Apparel Way", "San Francisco, CA 94124"]}, "phone": "", "display_phone": "", "distance": 3711.5919625688057}, {"id": "kBEo83SItZwTVZFYBUnJbA", "alias": "iku-sushi-san-francisco", "name": "iKU Sushi", "image_url": "https://s3-media3.fl.yelpcdn.com/bphoto/ueSnO4bc54nzqJZe0wygMA/o.jpg", "is_closed": false, "url": "https://www.yelp.com/biz/iku-sushi-san-francisco?adjust_creative=YxudJyndSed2kqfC9K7Xig&utm_campaign=yelp_api_v3&utm_medium=api_v3_business_search&utm_source=YxudJyndSed2kqfC9K7Xig", "review_count": 105, "categories": [{"alias": "sushi", "title": "Sushi Bars"}], "rating": 4.0, "coordinates": {"latitude": 37.79037, "longitude": -122.4021336}, "transactions": ["pickup", "delivery"], "price": "$", "location": {"address1": "120 Montgomery St", "address2": "", "address3": null, "city": "San Francisco", "zip_code": "94104", "country": "US", "state": "CA", "display_address": ["120 Montgomery St", "San Francisco, CA 94104"]}, "phone": "+14153424545", "display_phone": "(415) 342-4545", "distance": 4453.511516075692}, {"id": "vZpuRwoCD4upNRP5CScjDQ", "alias": "kiraku-berkeley", "name": "Kiraku", "image_url": "https://s3-media1.fl.yelpcdn.com/bphoto/mbrS9-YBB8E9GVxbdV-AHg/o.jpg", "is_closed": false, "url": "https://www.yelp.com/biz/kiraku-berkeley?adjust_creative=YxudJyndSed2kqfC9K7Xig&utm_campaign=yelp_api_v3&utm_medium=api_v3_business_search&utm_source=YxudJyndSed2kqfC9K7Xig", "review_count": 1446, "categories": [{"alias": "japanese", "title": "Japanese"}, {"alias": "tapasmallplates", "title": "Tapas/Small Plates"}, {"alias": "tapas", "title": "Tapas Bars"}], "rating": 4.5, "coordinates": {"latitude": 37.863734491595224, "longitude": -122.258976}, "transactions": ["pickup", "restaurant_reservation", "delivery"], "price": "$$", "location": {"address1": "2566B Telegraph Ave", "address2": "", "address3": "", "city": "Berkeley", "zip_code": "94704", "country": "US", "state": "CA", "display_address": ["2566B Telegraph Ave", "Berkeley, CA 94704"]}, "phone": "+15108482758", "display_phone": "(510) 848-2758", "distance": 19334.10387417841}, {"id": "qKVwVCJ_5D0iOxJYE9wSJw", "alias": "roka-akor-san-francisco-san-francisco-4", "name": "Roka Akor - San Francisco", "image_url": "https://s3-media4.fl.yelpcdn.com/bphoto/AAncYrJqBI7kXTKL87DNTA/o.jpg", "is_closed": false, "url": "https://www.yelp.com/biz/roka-akor-san-francisco-san-francisco-4?adjust_creative=YxudJyndSed2kqfC9K7Xig&utm_campaign=yelp_api_v3&utm_medium=api_v3_business_search&utm_source=YxudJyndSed2kqfC9K7Xig", "review_count": 1584, "categories": [{"alias": "steak", "title": "Steakhouses"}, {"alias": "japanese", "title": "Japanese"}, {"alias": "cocktailbars", "title": "Cocktail Bars"}], "rating": 4.0, "coordinates": {"latitude": 37.7965391394848, "longitude": -122.403850511802}, "transactions": ["pickup", "delivery"], "price": "$$$$", "location": {"address1": "801 Montgomery St", "address2": "", "address3": "", "city": "San Francisco", "zip_code": "94133", "country": "US", "state": "CA", "display_address": ["801 Montgomery St", "San Francisco, CA 94133"]}, "phone": "+14153628887", "display_phone": "(415) 362-8887", "distance": 4890.000090549722}, {"id": "NwbRaJVrghj_TzFg1kQjqw", "alias": "bento-peak-san-francisco", "name": "Bento Peak", "image_url": "https://s3-media3.fl.yelpcdn.com/bphoto/xadw9HVjI_DZykbAlnmi7Q/o.jpg", "is_closed": false, "url": "https://www.yelp.com/biz/bento-peak-san-francisco?adjust_creative=YxudJyndSed2kqfC9K7Xig&utm_campaign=yelp_api_v3&utm_medium=api_v3_business_search&utm_source=YxudJyndSed2kqfC9K7Xig", "review_count": 1, "categories": [{"alias": "japanese", "title": "Japanese"}], "rating": 4.0, "coordinates": {"latitude": 37.78108883884226, "longitude": -122.4702069}, "transactions": [], "location": {"address1": "4724 Geary Blvd", "address2": null, "address3": "", "city": "San Francisco", "zip_code": "94118", "country": "US", "state": "CA", "display_address": ["4724 Geary Blvd", "San Francisco, CA 94118"]}, "phone": "+14155928069", "display_phone": "(415) 592-8069", "distance": 3720.877442712972}, {"id": "VhFuTau6lW--wfMQJJw1VQ", "alias": "balboa-teriyaki-san-francisco", "name": "Balboa Teriyaki", "image_url": "https://s3-media2.fl.yelpcdn.com/bphoto/Y7LIGZUDk8Y_9wog9MXHPA/o.jpg", "is_closed": false, "url": "https://www.yelp.com/biz/balboa-teriyaki-san-francisco?adjust_creative=YxudJyndSed2kqfC9K7Xig&utm_campaign=yelp_api_v3&utm_medium=api_v3_business_search&utm_source=YxudJyndSed2kqfC9K7Xig", "review_count": 251, "categories": [{"alias": "japanese", "title": "Japanese"}], "rating": 3.5, "coordinates": {"latitude": 37.7758737, "longitude": -122.4968075}, "transactions": ["pickup", "delivery"], "price": "$$", "location": {"address1": "3536 Balboa St", "address2": "", "address3": "", "city": "San Francisco", "zip_code": "94121", "country": "US", "state": "CA", "display_address": ["3536 Balboa St", "San Francisco, CA 94121"]}, "phone": "+14157518895", "display_phone": "(415) 751-8895", "distance": 5570.334523183567}, {"id": "5l-3HXbjXJdFWGZDzeyM1A", "alias": "echigo-home-cook-san-francisco", "name": "Echigo Home Cook", "image_url": "https://s3-media3.fl.yelpcdn.com/bphoto/m90CBs-9Re91wOPzUqztZw/o.jpg", "is_closed": false, "url": "https://www.yelp.com/biz/echigo-home-cook-san-francisco?adjust_creative=YxudJyndSed2kqfC9K7Xig&utm_campaign=yelp_api_v3&utm_medium=api_v3_business_search&utm_source=YxudJyndSed2kqfC9K7Xig", "review_count": 2, "categories": [{"alias": "sushi", "title": "Sushi Bars"}], "rating": 4.0, "coordinates": {"latitude": 37.797626, "longitude": -122.428633}, "transactions": ["pickup", "delivery"], "location": {"address1": "2760 Octavia St", "address2": "", "address3": null, "city": "San Francisco", "zip_code": "94123", "country": "US", "state": "CA", "display_address": ["2760 Octavia St", "San Francisco, CA 94123"]}, "phone": "", "display_phone": "", "distance": 4143.300978334598}, {"id": "Wqd3s0eiESDYvEvjgs3JLA", "alias": "bar-iris-san-francisco", "name": "Bar Iris", "image_url": "https://s3-media3.fl.yelpcdn.com/bphoto/bcToys7npwHSU4gbia6xAA/o.jpg", "is_closed": false, "url": "https://www.yelp.com/biz/bar-iris-san-francisco?adjust_creative=YxudJyndSed2kqfC9K7Xig&utm_campaign=yelp_api_v3&utm_medium=api_v3_business_search&utm_source=YxudJyndSed2kqfC9K7Xig", "review_count": 87, "categories": [{"alias": "japanese", "title": "Japanese"}, {"alias": "cocktailbars", "title": "Cocktail Bars"}], "rating": 4.5, "coordinates": {"latitude": 37.79805175026088, "longitude": -122.4220555553497}, "transactions": [], "price": "$$", "location": {"address1": "2310 Polk St", "address2": "", "address3": null, "city": "San Francisco", "zip_code": "94109", "country": "US", "state": "CA", "display_address": ["2310 Polk St", "San Francisco, CA 94109"]}, "phone": "", "display_phone": "", "distance": 4320.433540664409}, {"id": "n3hTvILJyQ-XDchvrW7PBg", "alias": "billingsgate-san-francisco", "name": "Billingsgate", "image_url": "https://s3-media4.fl.yelpcdn.com/bphoto/thtIbLp5NW2PtlbeSpLi1Q/o.jpg", "is_closed": false, "url": "https://www.yelp.com/biz/billingsgate-san-francisco?adjust_creative=YxudJyndSed2kqfC9K7Xig&utm_campaign=yelp_api_v3&utm_medium=api_v3_business_search&utm_source=YxudJyndSed2kqfC9K7Xig", "review_count": 77, "categories": [{"alias": "seafood", "title": "Seafood"}, {"alias": "bars", "title": "Bars"}, {"alias": "seafoodmarkets", "title": "Seafood Markets"}], "rating": 4.5, "coordinates": {"latitude": 37.75152, "longitude": -122.42879}, "transactions": [], "location": {"address1": "3859 24th St", "address2": "", "address3": null, "city": "San Francisco", "zip_code": "94114", "country": "US", "state": "CA", "display_address": ["3859 24th St", "San Francisco, CA 94114"]}, "phone": "+14155903001", "display_phone": "(415) 590-3001", "distance": 1239.133070245007}, {"id": "GA1dcvaT7I_4fnTLzeFhsg", "alias": "oma-sushi-san-francisco", "name": "Oma Sushi", "image_url": "https://s3-media4.fl.yelpcdn.com/bphoto/UGdgq3kx0_QGmhKP9qWHoA/o.jpg", "is_closed": false, "url": "https://www.yelp.com/biz/oma-sushi-san-francisco?adjust_creative=YxudJyndSed2kqfC9K7Xig&utm_campaign=yelp_api_v3&utm_medium=api_v3_business_search&utm_source=YxudJyndSed2kqfC9K7Xig", "review_count": 230, "categories": [{"alias": "japanese", "title": "Japanese"}, {"alias": "sushi", "title": "Sushi Bars"}], "rating": 3.5, "coordinates": {"latitude": 37.7859447, "longitude": -122.4110567}, "transactions": ["pickup", "delivery"], "price": "$$", "location": {"address1": "330 O'Farrell St", "address2": "", "address3": null, "city": "San Francisco", "zip_code": "94102", "country": "US", "state": "CA", "display_address": ["330 O'Farrell St", "San Francisco, CA 94102"]}, "phone": "+14157570066", "display_phone": "(415) 757-0066", "distance": 3568.740875821537}, {"id": "RxIFKVvc8iVBPIVpe55Byg", "alias": "bon-nene-san-francisco", "name": "Bon, Nene", "image_url": "https://s3-media1.fl.yelpcdn.com/bphoto/f204PDeEGm0uh9B4KVeWOg/o.jpg", "is_closed": false, "url": "https://www.yelp.com/biz/bon-nene-san-francisco?adjust_creative=YxudJyndSed2kqfC9K7Xig&utm_campaign=yelp_api_v3&utm_medium=api_v3_business_search&utm_source=YxudJyndSed2kqfC9K7Xig", "review_count": 357, "categories": [{"alias": "japanese", "title": "Japanese"}, {"alias": "asianfusion", "title": "Asian Fusion"}], "rating": 4.0, "coordinates": {"latitude": 37.75762490446, "longitude": -122.411629484421}, "transactions": ["pickup", "delivery"], "price": "$$", "location": {"address1": "2850 21st St", "address2": "", "address3": null, "city": "San Francisco", "zip_code": "94110", "country": "US", "state": "CA", "display_address": ["2850 21st St", "San Francisco, CA 94110"]}, "phone": "+14158729332", "display_phone": "(415) 872-9332", "distance": 2211.883791862204}, {"id": "rUQmWnDbZWo0AN9j1i3cAQ", "alias": "woori-food-market-san-francisco-6", "name": "Woori Food Market", "image_url": "https://s3-media2.fl.yelpcdn.com/bphoto/yzIlrhiiBeB8-1BnC6Gfdg/o.jpg", "is_closed": false, "url": "https://www.yelp.com/biz/woori-food-market-san-francisco-6?adjust_creative=YxudJyndSed2kqfC9K7Xig&utm_campaign=yelp_api_v3&utm_medium=api_v3_business_search&utm_source=YxudJyndSed2kqfC9K7Xig", "review_count": 144, "categories": [{"alias": "catering", "title": "Caterers"}, {"alias": "intlgrocery", "title": "International Grocery"}], "rating": 4.5, "coordinates": {"latitude": 37.78375, "longitude": -122.43249}, "transactions": ["pickup", "delivery"], "price": "$", "location": {"address1": "1528 Fillmore St", "address2": "", "address3": "", "city": "San Francisco", "zip_code": "94115", "country": "US", "state": "CA", "display_address": ["1528 Fillmore St", "San Francisco, CA 94115"]}, "phone": "+14156739887", "display_phone": "(415) 673-9887", "distance": 2559.4434813171188}, {"id": "jefsqzA1dIlsszG9Y6xwMQ", "alias": "hina-yakitori-san-francisco-2", "name": "Hina Yakitori", "image_url": "https://s3-media1.fl.yelpcdn.com/bphoto/l19sWBZI9Sji6a0Xzd5dsA/o.jpg", "is_closed": false, "url": "https://www.yelp.com/biz/hina-yakitori-san-francisco-2?adjust_creative=YxudJyndSed2kqfC9K7Xig&utm_campaign=yelp_api_v3&utm_medium=api_v3_business_search&utm_source=YxudJyndSed2kqfC9K7Xig", "review_count": 105, "categories": [{"alias": "japanese", "title": "Japanese"}], "rating": 4.5, "coordinates": {"latitude": 37.77707, "longitude": -122.43792}, "transactions": ["pickup", "delivery"], "price": "$$$$", "location": {"address1": "808 Divisadero St", "address2": "", "address3": null, "city": "San Francisco", "zip_code": "94117", "country": "US", "state": "CA", "display_address": ["808 Divisadero St", "San Francisco, CA 94117"]}, "phone": "+14158171944", "display_phone": "(415) 817-1944", "distance": 1809.9588476262732}, {"id": "5BsM7F6uetq0kYEXZ4TImQ", "alias": "sushi-delight-san-francisco-2", "name": "Sushi Delight", "image_url": "https://s3-media1.fl.yelpcdn.com/bphoto/3rRoRIXj8GAZtjQNX7dD8Q/o.jpg", "is_closed": false, "url": "https://www.yelp.com/biz/sushi-delight-san-francisco-2?adjust_creative=YxudJyndSed2kqfC9K7Xig&utm_campaign=yelp_api_v3&utm_medium=api_v3_business_search&utm_source=YxudJyndSed2kqfC9K7Xig", "review_count": 369, "categories": [{"alias": "sushi", "title": "Sushi Bars"}, {"alias": "japanese", "title": "Japanese"}, {"alias": "buffets", "title": "Buffets"}], "rating": 3.0, "coordinates": {"latitude": 37.77032, "longitude": -122.42583}, "transactions": ["pickup", "delivery"], "price": "$$", "location": {"address1": "1946 Market St", "address2": null, "address3": "", "city": "San Francisco", "zip_code": "94102", "country": "US", "state": "CA", "display_address": ["1946 Market St", "San Francisco, CA 94102"]}, "phone": "+14156213622", "display_phone": "(415) 621-3622", "distance": 1391.713720586114}, {"id": "LysKaLPCFOdsUnlJC48Trg", "alias": "gozu-san-francisco", "name": "Gozu", "image_url": "https://s3-media2.fl.yelpcdn.com/bphoto/3Loftzn26L9rX0vX_RHXDQ/o.jpg", "is_closed": false, "url": "https://www.yelp.com/biz/gozu-san-francisco?adjust_creative=YxudJyndSed2kqfC9K7Xig&utm_campaign=yelp_api_v3&utm_medium=api_v3_business_search&utm_source=YxudJyndSed2kqfC9K7Xig", "review_count": 107, "categories": [{"alias": "japanese", "title": "Japanese"}, {"alias": "beer_and_wine", "title": "Beer, Wine & Spirits"}], "rating": 4.5, "coordinates": {"latitude": 37.791243, "longitude": -122.39198}, "transactions": ["delivery"], "price": "$$$$", "location": {"address1": "201 Spear St", "address2": "Ste 120", "address3": null, "city": "San Francisco", "zip_code": "94105", "country": "US", "state": "CA", "display_address": ["201 Spear St", "Ste 120", "San Francisco, CA 94105"]}, "phone": "+14155239745", "display_phone": "(415) 523-9745", "distance": 5162.2672397078195}]